{"type":"FeatureCollection","features":[{"type":"Feature","geometry":{"type":"Point","coordinates":[-106.582915,35.058437]},"properties":{"Name":"999 SEAFOOD SUPERMARKET INC","Nature_of_Business":" ","Address":"5315 GIBSON BLVD SE","City":"ALBUQUERQUE","State":"NM","Billing_Status":"Active Billable","Description":"Retail -Grocery"}},{"type":"Feature","geometry":{"type":"Point","coordinates":[-106.550628,35.096081]},"properties":{"Name":"A-1 ORIENTAL MARKET","Nature_of_Business":"GROCERY","Address":"1410 WYOMING BLVD NE","City":"ALBUQUERQUE","State":"NM","Billing_Status":"Active Billable","Description":"Retail -Grocery"}},{"type":"Feature","geometry":{"type":"Point","coordinates":[-106.58789,35.130864]},"properties":{"Name":"ALBERTSONS 904","Nature_of_Business":"BAKERY/DELI/MEAT/RETI","Address":"4950 MONTGOMERY BLVD NE","City":"ALBUQUERQUE","State":"NM","Billing_Status":"Active Billable","Description":"Retail -Grocery"}},{"type":"Feature","geometry":{"type":"Point","coordinates":[-106.515538,35.114801]},"properties":{"Name":"ALBERTSONS 905","Nature_of_Business":"GROC/BKRY/REST","Address":"2910 JUAN TABO BLVD NE","City":"ALBUQUERQUE","State":"NM","Billing_Status":"Active Billable","Description":"Retail -Grocery"}},{"type":"Feature","geometry":{"type":"Point","coordinates":[-106.533356,35.11447]},"properties":{"Name":"ALBERTSONS 911","Nature_of_Business":"BAKERY/DELI/MEAT/RETI","Address":"2801 EUBANK BLVD NE","City":"ALBUQUERQUE","State":"NM","Billing_Status":"Active Billable","Description":"Retail -Grocery"}},{"type":"Feature","geometry":{"type":"Point","coordinates":[-106.683836,35.152364]},"properties":{"Name":"ALBERTSONS 915","Nature_of_Business":"GROC/BKRY/REST","Address":"6200 COORS BLVD NW","City":"ALBUQUERQUE","State":"NM","Billing_Status":"Active Billable","Description":"Retail -Grocery"}},{"type":"Feature","geometry":{"type":"Point","coordinates":[-106.711946,35.079523]},"properties":{"Name":"ALBERTSONS 922","Nature_of_Business":"BAKERY/DELI/MEAT/RETI","Address":"6600 CENTRAL AV SW","City":"ALBUQUERQUE","State":"NM","Billing_Status":"Active Billable","Description":"Retail -Grocery"}},{"type":"Feature","geometry":{"type":"Point","coordinates":[-106.542155,35.174603]},"properties":{"Name":"ALBERTSONS 924","Nature_of_Business":"GROC/BKRY/REST","Address":"8100 VENTURA ST NE","City":"ALBUQUERQUE","State":"NM","Billing_Status":"Active Billable","Description":"Retail -Grocery"}},{"type":"Feature","geometry":{"type":"Point","coordinates":[-106.517577,35.086937]},"properties":{"Name":"ALBERTSONS 928","Nature_of_Business":"BAKERY/DELI/MEAT/RETI","Address":"11825 LOMAS BLVD NE","City":"ALBUQUERQUE","State":"NM","Billing_Status":"Active Billable","Description":"Retail -Grocery"}},{"type":"Feature","geometry":{"type":"Point","coordinates":[-106.649367,35.200752]},"properties":{"Name":"ALBERTSONS 937","Nature_of_Business":"BAKERY/DELI/MEAT/RETI","Address":"10131 COORS BLVD NW","City":"ALBUQUERQUE","State":"NM","Billing_Status":"Active Billable","Description":"Retail -Grocery"}},{"type":"Feature","geometry":{"type":"Point","coordinates":[-106.56005,35.159764]},"properties":{"Name":"ALBERTSONS 938","Nature_of_Business":"BAKERY/DELI/MEAT/RETAIL","Address":"7101 WYOMING BLVD NE","City":"ALBUQUERQUE","State":"NM","Billing_Status":"Active Billable","Description":"Retail -Grocery"}},{"type":"Feature","geometry":{"type":"Point","coordinates":[-106.499032,35.152447]},"properties":{"Name":"ALBERTSONS 939","Nature_of_Business":"BAKERY/DELI/MEAT/RETI","Address":"12201 ACADEMY RD NE","City":"ALBUQUERQUE","State":"NM","Billing_Status":"Active Billable","Description":"Retail -Grocery"}},{"type":"Feature","geometry":{"type":"Point","coordinates":[-106.546904,35.073505]},"properties":{"Name":"ALJAWAIN MARKET INC","Nature_of_Business":" ","Address":"9012 CENTRAL AV NE STE C","City":"ALBUQUERQUE","State":"NM","Billing_Status":"Active Billable","Description":"Retail -Grocery"}},{"type":"Feature","geometry":{"type":"Point","coordinates":[-106.586346,35.082351]},"properties":{"Name":"ARIANA EXPORT AND IMPORT INC","Nature_of_Business":" ","Address":"607 SAN MATEO BLVD NE STE B","City":"ALBUQUERQUE","State":"NM","Billing_Status":"Active Billable","Description":"Retail -Grocery"}},{"type":"Feature","geometry":{"type":"Point","coordinates":[-106.532838,35.102791]},"properties":{"Name":"ARIRANG ORIENTAL MARKET","Nature_of_Business":"RESTAURANT","Address":"1826 EUBANK BLVD NE","City":"ALBUQUERQUE","State":"NM","Billing_Status":"Active Billable","Description":"Retail -Grocery"}},{"type":"Feature","geometry":{"type":"Point","coordinates":[-106.577271,35.130958]},"properties":{"Name":"ASIA MARKET","Nature_of_Business":" ","Address":"6207 MONTGOMERY BLVD NE","City":"ALBUQUERQUE","State":"NM","Billing_Status":"Active Billable","Description":"Retail -Grocery"}},{"type":"Feature","geometry":{"type":"Point","coordinates":[-106.516754,35.108976]},"properties":{"Name":"BIG LOTS","Nature_of_Business":"RETAIL SALES VARIETY","Address":"11145 MENAUL BLVD NE","City":"ALBUQUERQUE","State":"NM","Billing_Status":"Active Billable","Description":"Retail -Grocery"}},{"type":"Feature","geometry":{"type":"Point","coordinates":[-106.583041,35.072848]},"properties":{"Name":"BIG LOTS","Nature_of_Business":"RETAIL SALES VARIETY","Address":"5555 ZUNI RD SE","City":"ALBUQUERQUE","State":"NM","Billing_Status":"Active Billable","Description":"Retail -Grocery"}},{"type":"Feature","geometry":{"type":"Point","coordinates":[-106.584755,35.109266]},"properties":{"Name":"BIG LOTS 4077","Nature_of_Business":"RETAIL SALES VARIETY","Address":"5341 MENAUL BLVD NE","City":"ALBUQUERQUE","State":"NM","Billing_Status":"Active Billable","Description":"Retail -Grocery"}},{"type":"Feature","geometry":{"type":"Point","coordinates":[-106.710825,35.089402]},"properties":{"Name":"BIG LOTS INC 1982","Nature_of_Business":"RETAIL","Address":"465 COORS BLVD NW","City":"ALBUQUERQUE","State":"NM","Billing_Status":"Active Billable","Description":"Retail -Grocery"}},{"type":"Feature","geometry":{"type":"Point","coordinates":[-106.574895,35.07646]},"properties":{"Name":"BOMBAY SPICE","Nature_of_Business":" ","Address":"6514 CENTRAL AV SE","City":"ALBUQUERQUE","State":"NM","Billing_Status":"Active Billable","Description":"Retail -Grocery"}},{"type":"Feature","geometry":{"type":"Point","coordinates":[-106.550825,35.095061]},"properties":{"Name":"CAFE ISTANBUL","Nature_of_Business":"FRESH MARKET","Address":"1415 WYOMING BLVD NE","City":"ALBUQUERQUE","State":"NM","Billing_Status":"Active Billable","Description":"Retail -Grocery"}},{"type":"Feature","geometry":{"type":"Point","coordinates":[-106.739319,35.056087]},"properties":{"Name":"CARNICERIA CUAUHTEMOC","Nature_of_Business":"MEAT MARKET","Address":"9601 SAGE SW","City":"ALBUQUERQUE","State":"NM","Billing_Status":"Active Billable","Description":"Retail -Grocery"}},{"type":"Feature","geometry":{"type":"Point","coordinates":[-106.642609,35.094085]},"properties":{"Name":"CHILE KONNECTION PRODUCE","Nature_of_Business":"RAW PRODUCE","Address":"1136 BROADWAY BLVD NE","City":"ALBUQUERQUE","State":"NM","Billing_Status":"Active Billable","Description":"Retail -Grocery"}},{"type":"Feature","geometry":{"type":"Point","coordinates":[-106.552904,35.130613]},"properties":{"Name":"CHILE TRADITIONS","Nature_of_Business":"RAW PRODUCE STAND","Address":"8204 MONTGOMERY BLVD NE","City":"ALBUQUERQUE","State":"NM","Billing_Status":"Active Billable","Description":"Retail -Grocery"}},{"type":"Feature","geometry":{"type":"Point","coordinates":[-106.652216,35.082568]},"properties":{"Name":"CLAUDIA RAES","Nature_of_Business":" ","Address":"414 SILVER AV SW","City":"ALBUQUERQUE","State":"NM","Billing_Status":"Active Billable","Description":"Retail -Grocery"}},{"type":"Feature","geometry":{"type":"Point","coordinates":[-106.686238,35.085487]},"properties":{"Name":"CNG RANCH LLC","Nature_of_Business":" ","Address":"4201 CENTRAL AV NW","City":"ALBUQUERQUE","State":"NM","Billing_Status":"Active Billable","Description":"Retail -Grocery"}},{"type":"Feature","geometry":{"type":"Point","coordinates":[-106.608362,35.109328]},"properties":{"Name":"COST PLUS IMPORTS","Nature_of_Business":"GROCERY","Address":"3301 MENAUL BLVD NE","City":"ALBUQUERQUE","State":"NM","Billing_Status":"Active Billable","Description":"Retail -Grocery"}},{"type":"Feature","geometry":{"type":"Point","coordinates":[-106.653058,35.202758]},"properties":{"Name":"COST PLUS WORLD MARKET","Nature_of_Business":"MARKET","Address":"3601 OLD AIRPORT AV NW STE B","City":"ALBUQUERQUE","State":"NM","Billing_Status":"Active Billable","Description":"Retail -Grocery"}},{"type":"Feature","geometry":{"type":"Point","coordinates":[-106.657576,35.19487]},"properties":{"Name":"COSTCO WHOLESALE 1016","Nature_of_Business":"WHOLESALE/RETAIL","Address":"9955 COORS BYPASS BLVD NW","City":"ALBUQUERQUE","State":"NM","Billing_Status":"Active Billable","Description":"Retail -Grocery"}},{"type":"Feature","geometry":{"type":"Point","coordinates":[-106.575731,35.072691]},"properties":{"Name":"COSTCO WHOLESALE 116","Nature_of_Business":"BAKERY/GROCERY/REST","Address":"1420 RENAISSANCE BLVD NE","City":"ALBUQUERQUE","State":"NM","Billing_Status":"Active Billable","Description":"Retail -Grocery"}},{"type":"Feature","geometry":{"type":"Point","coordinates":[-106.532488,35.067662]},"properties":{"Name":"COSTCO WHOLESALE CORPORATION","Nature_of_Business":"BAKERY/GROCERY/REST","Address":"500 EUBANK BLVD SE","City":"ALBUQUERQUE","State":"NM","Billing_Status":"Active Billable","Description":"Retail -Grocery"}},{"type":"Feature","geometry":{"type":"Point","coordinates":[-106.577535,35.065192]},"properties":{"Name":"DAMACIOS","Nature_of_Business":"GROCERY","Address":"913 SAN PEDRO DR SE","City":"ALBUQUERQUE","State":"NM","Billing_Status":"Active Billable","Description":"Retail -Grocery"}},{"type":"Feature","geometry":{"type":"Point","coordinates":[-106.577495,35.07393]},"properties":{"Name":"DOLLAR GENERAL STORE 10188","Nature_of_Business":"RETAIL SALES","Address":"301 SAN PEDRO BLVD SE STE L","City":"ALBUQUERQUE","State":"NM","Billing_Status":"Active Billable","Description":"Retail -Grocery"}},{"type":"Feature","geometry":{"type":"Point","coordinates":[-106.637548,35.138447]},"properties":{"Name":"DOLLAR GENERAL STORE 10502","Nature_of_Business":"RETAIL SALES","Address":"201 MONTANO WY NW","City":"ALBUQUERQUE","State":"NM","Billing_Status":"Active Billable","Description":"Retail -Grocery"}},{"type":"Feature","geometry":{"type":"Point","coordinates":[-106.515635,35.070084]},"properties":{"Name":"DOLLAR GENERAL STORE 10730","Nature_of_Business":"RETAIL SALES","Address":"11816 CENTRAL AV SE","City":"ALBUQUERQUE","State":"NM","Billing_Status":"Active Billable","Description":"Retail -Grocery"}},{"type":"Feature","geometry":{"type":"Point","coordinates":[-106.514928,35.08497]},"properties":{"Name":"DOLLAR GENERAL STORE 10922","Nature_of_Business":"RETAIL PRE-PACKAGED","Address":"800 JUAN TABO NE","City":"ALBUQUERQUE","State":"NM","Billing_Status":"Active Billable","Description":"Retail -Grocery"}},{"type":"Feature","geometry":{"type":"Point","coordinates":[-106.701764,35.120174]},"properties":{"Name":"DOLLAR TREE 2664","Nature_of_Business":"RETAIL  SALES","Address":"3301 COORS BLVD NW","City":"ALBUQUERQUE","State":"NM","Billing_Status":"Active Billable","Description":"Retail -Grocery"}},{"type":"Feature","geometry":{"type":"Point","coordinates":[-106.500434,35.068453]},"properties":{"Name":"DOLLAR TREE 2689","Nature_of_Business":"RETAIL  SALES","Address":"13130 CENTRAL AV SE","City":"ALBUQUERQUE","State":"NM","Billing_Status":"Active Billable","Description":"Retail -Grocery"}},{"type":"Feature","geometry":{"type":"Point","coordinates":[-106.586308,35.14838]},"properties":{"Name":"DOLLAR TREE 2745","Nature_of_Business":"RETAIL SALES","Address":"6300 SAN MATEO BLVD NE STE G","City":"ALBUQUERQUE","State":"NM","Billing_Status":"Active Billable","Description":"Retail -Grocery"}},{"type":"Feature","geometry":{"type":"Point","coordinates":[-106.645687,35.110674]},"properties":{"Name":"DOLLAR TREE 2851","Nature_of_Business":"RETAIL STORE","Address":"300 MENAUL BLVD NW STE 101","City":"ALBUQUERQUE","State":"NM","Billing_Status":"Active Billable","Description":"Retail -Grocery"}},{"type":"Feature","geometry":{"type":"Point","coordinates":[-106.583041,35.072848]},"properties":{"Name":"DOLLAR TREE 2967","Nature_of_Business":"RETAIL  SALES","Address":"5555 ZUNI RD SE STE 21","City":"ALBUQUERQUE","State":"NM","Billing_Status":"Active Billable","Description":"Retail -Grocery"}},{"type":"Feature","geometry":{"type":"Point","coordinates":[-106.559739,35.175537]},"properties":{"Name":"DOLLAR TREE 4182","Nature_of_Business":"RETAIL STORE","Address":"8102 WYOMING BLVD NE","City":"ALBUQUERQUE","State":"NM","Billing_Status":"Active Billable","Description":"Retail -Grocery"}},{"type":"Feature","geometry":{"type":"Point","coordinates":[-106.563737,35.130645]},"properties":{"Name":"DOWNS NUTRITION CENTER","Nature_of_Business":"GROCERY","Address":"7400 MONTGOMERY BLVD NE","City":"ALBUQUERQUE","State":"NM","Billing_Status":"Active Billable","Description":"Retail -Grocery"}},{"type":"Feature","geometry":{"type":"Point","coordinates":[-106.547287,35.073597]},"properties":{"Name":"DULCERIA PUEBLA","Nature_of_Business":" ","Address":"9001 CENTRAL AV NE STE E","City":"ALBUQUERQUE","State":"NM","Billing_Status":"Active Billable","Description":"Retail -Grocery"}},{"type":"Feature","geometry":{"type":"Point","coordinates":[-106.742619,35.073126]},"properties":{"Name":"EL MEZQUITE MARKET","Nature_of_Business":"FOOD SERVICE","Address":"100 98TH ST NW","City":"ALBUQUERQUE","State":"NM","Billing_Status":"Active Billable","Description":"Retail -Grocery"}},{"type":"Feature","geometry":{"type":"Point","coordinates":[-106.643415,35.127466]},"properties":{"Name":"EL MEZQUITE MARKET LLC","Nature_of_Business":"MEAT MARKET","Address":"4401 4TH ST NW","City":"ALBUQUERQUE","State":"NM","Billing_Status":"Active Billable","Description":"Retail -Grocery"}},{"type":"Feature","geometry":{"type":"Point","coordinates":[-106.577525,35.075719]},"properties":{"Name":"EL MEZQUITE MARKET LLC","Nature_of_Business":"MEAT MARKET","Address":"201 SAN PEDRO DR SE","City":"ALBUQUERQUE","State":"NM","Billing_Status":"Active Billable","Description":"Retail -Grocery"}},{"type":"Feature","geometry":{"type":"Point","coordinates":[-106.554119,35.074408]},"properties":{"Name":"EL RANCHITO MEAT MARKET","Nature_of_Business":" ","Address":"8319 CENTRAL AV NE","City":"ALBUQUERQUE","State":"NM","Billing_Status":"Active Billable","Description":"Retail -Grocery"}},{"type":"Feature","geometry":{"type":"Point","coordinates":[-106.636773,35.091946]},"properties":{"Name":"EMBASSY SUITES ALBUQUERQUE","Nature_of_Business":"HOTEL/RESTAURANT","Address":"1000 WOODWARD PL NE","City":"ALBUQUERQUE","State":"NM","Billing_Status":"Active Billable","Description":"Retail -Grocery"}},{"type":"Feature","geometry":{"type":"Point","coordinates":[-106.557784,35.074613]},"properties":{"Name":"FAIR N SQUARE FOOD STORE","Nature_of_Business":"GROCERY","Address":"8020 CENTRAL AV SE","City":"ALBUQUERQUE","State":"NM","Billing_Status":"Active Billable","Description":"Retail -Grocery"}},{"type":"Feature","geometry":{"type":"Point","coordinates":[-106.578761,35.087458]},"properties":{"Name":"FAMILY DOLLAR 8464","Nature_of_Business":" ","Address":"6001 LOMAS BLVD NE","City":"ALBUQUERQUE","State":"NM","Billing_Status":"Active Billable","Description":"Retail -Grocery"}},{"type":"Feature","geometry":{"type":"Point","coordinates":[-106.577545,35.160598]},"properties":{"Name":"FAMILY DOLLAR STORES NM 5165","Nature_of_Business":"RETAIL DISCOUNT","Address":"7100 SAN PEDRO DR NE","City":"ALBUQUERQUE","State":"NM","Billing_Status":"Active Billable","Description":"Retail -Grocery"}},{"type":"Feature","geometry":{"type":"Point","coordinates":[-106.622058,35.076874]},"properties":{"Name":"FAMILY DOLLAR STORES NM 5305","Nature_of_Business":"RETAIL DISCOUNT","Address":"306 YALE BLVD SE","City":"ALBUQUERQUE","State":"NM","Billing_Status":"Active Billable","Description":"Retail -Grocery"}},{"type":"Feature","geometry":{"type":"Point","coordinates":[-106.533356,35.11447]},"properties":{"Name":"FAMILY DOLLAR STORES NM 5495","Nature_of_Business":"RETAIL DISCOUNT","Address":"2801 EUBANK BLVD NE","City":"ALBUQUERQUE","State":"NM","Billing_Status":"Active Billable","Description":"Retail -Grocery"}},{"type":"Feature","geometry":{"type":"Point","coordinates":[-106.730253,35.073401]},"properties":{"Name":"FAMILY DOLLAR STORES NM 6295","Nature_of_Business":"RETAIL DISCOUNT STORE","Address":"101 86TH ST SW","City":"ALBUQUERQUE","State":"NM","Billing_Status":"Active Billable","Description":"Retail -Grocery"}},{"type":"Feature","geometry":{"type":"Point","coordinates":[-106.645084,35.106557]},"properties":{"Name":"FAMILY DOLLAR STORES NM 6570","Nature_of_Business":"RETAIL DISCOUNT","Address":"2001 2nd ST NW","City":"ALBUQUERQUE","State":"NM","Billing_Status":"Active Billable","Description":"Retail -Grocery"}},{"type":"Feature","geometry":{"type":"Point","coordinates":[-106.513142,35.108663]},"properties":{"Name":"FAMILY DOLLAR STORES OF NM 2827","Nature_of_Business":"RETAIL DISCOUNT","Address":"11500 MENAUL BLVD NE","City":"ALBUQUERQUE","State":"NM","Billing_Status":"Active Billable","Description":"Retail -Grocery"}},{"type":"Feature","geometry":{"type":"Point","coordinates":[-106.710824,35.080743]},"properties":{"Name":"FAMILY DOLLAR STORES OF NM 2828","Nature_of_Business":"RETAIL DISCOUNT","Address":"111 COORS BLVD NW","City":"ALBUQUERQUE","State":"NM","Billing_Status":"Active Billable","Description":"Retail -Grocery"}},{"type":"Feature","geometry":{"type":"Point","coordinates":[-106.640004,35.145306]},"properties":{"Name":"FAMILY DOLLAR STORES OF NM 3083","Nature_of_Business":"RETAIL DISCOUNT","Address":"6211 4TH ST NW","City":"ALBUQUERQUE","State":"NM","Billing_Status":"Active Billable","Description":"Retail -Grocery"}},{"type":"Feature","geometry":{"type":"Point","coordinates":[-106.683148,35.065072]},"properties":{"Name":"FAMILY DOLLAR STORES OF NM 3087","Nature_of_Business":"RETAIL DISCOUNT","Address":"1722 BRIDGE BLVD SW","City":"ALBUQUERQUE","State":"NM","Billing_Status":"Active Billable","Description":"Retail -Grocery"}},{"type":"Feature","geometry":{"type":"Point","coordinates":[-106.65347,35.122304]},"properties":{"Name":"FAMILY DOLLAR STORES OF NM 3232","Nature_of_Business":"RETAIL DISCOUNT","Address":"1114 CANDELARIA RD NW","City":"ALBUQUERQUE","State":"NM","Billing_Status":"Active Billable","Description":"Retail -Grocery"}},{"type":"Feature","geometry":{"type":"Point","coordinates":[-106.515079,35.070304]},"properties":{"Name":"FAMILY DOLLAR STORES OF NM 4208","Nature_of_Business":"RETAIL DISCOUNT","Address":"128 JUAN TABO BLVD NE","City":"ALBUQUERQUE","State":"NM","Billing_Status":"Active Billable","Description":"Retail -Grocery"}},{"type":"Feature","geometry":{"type":"Point","coordinates":[-106.686238,35.085487]},"properties":{"Name":"FAMILY DOLLAR STORES OF NM 4233","Nature_of_Business":"RETAIL DISCOUNT","Address":"4201 CENTRAL AV NW","City":"ALBUQUERQUE","State":"NM","Billing_Status":"Active Billable","Description":"Retail -Grocery"}},{"type":"Feature","geometry":{"type":"Point","coordinates":[-106.713842,35.029149]},"properties":{"Name":"FAMILY DOLLAR STORES OF NM 5072","Nature_of_Business":"RETAIL DISCOUNT","Address":"3211 COORS BLVD SW","City":"ALBUQUERQUE","State":"NM","Billing_Status":"Active Billable","Description":"Retail -Grocery"}},{"type":"Feature","geometry":{"type":"Point","coordinates":[-106.550302,35.073501]},"properties":{"Name":"FAMILY DOLLAR STORES OF NM 5120","Nature_of_Business":"RETAIL DISCOUNT","Address":"110 WYOMING BLVD SE","City":"ALBUQUERQUE","State":"NM","Billing_Status":"Active Billable","Description":"Retail -Grocery"}},{"type":"Feature","geometry":{"type":"Point","coordinates":[-106.532642,35.094812]},"properties":{"Name":"FAMILY DOLLAR STORES OF NM 5178","Nature_of_Business":"RETAIL DISCOUNT","Address":"1416 EUBANK BLVD NE","City":"ALBUQUERQUE","State":"NM","Billing_Status":"Active Billable","Description":"Retail -Grocery"}},{"type":"Feature","geometry":{"type":"Point","coordinates":[-106.514963,35.087947]},"properties":{"Name":"FAMILY DOLLAR STORES OF NM 5328","Nature_of_Business":"RETAIL DISCOUNT","Address":"930 JUAN TABO BLVD NE","City":"ALBUQUERQUE","State":"NM","Billing_Status":"Active Billable","Description":"Retail -Grocery"}},{"type":"Feature","geometry":{"type":"Point","coordinates":[-106.575622,35.058174]},"properties":{"Name":"FAMILY DOLLAR STORES OF NM 5506","Nature_of_Business":"RETAILER","Address":"5950 GIBSON BLVD SE","City":"ALBUQUERQUE","State":"NM","Billing_Status":"Active Billable","Description":"Retail -Grocery"}},{"type":"Feature","geometry":{"type":"Point","coordinates":[-106.694952,35.152638]},"properties":{"Name":"FAMILY DOLLAR STORES OF NM 6258","Nature_of_Business":"RETAIL DISCOUNT","Address":"4801 MONTANO RD NW","City":"ALBUQUERQUE","State":"NM","Billing_Status":"Active Billable","Description":"Retail -Grocery"}},{"type":"Feature","geometry":{"type":"Point","coordinates":[-106.72011,35.117545]},"properties":{"Name":"FAMILY DOLLAR STORES OF NM 8471","Nature_of_Business":" ","Address":"2511 OURAY RD NW","City":"ALBUQUERQUE","State":"NM","Billing_Status":"Active Billable","Description":"Retail -Grocery"}},{"type":"Feature","geometry":{"type":"Point","coordinates":[-106.738637,35.056176]},"properties":{"Name":"FAMILY DOLLAR STORES OF NM INC 8685","Nature_of_Business":" ","Address":"9550 SAGE RD SW","City":"ALBUQUERQUE","State":"NM","Billing_Status":"Active Billable","Description":"Retail -Grocery"}},{"type":"Feature","geometry":{"type":"Point","coordinates":[-106.532432,35.105403]},"properties":{"Name":"FARMERS MARKET","Nature_of_Business":"GROCERY","Address":"10110 SNOW HEIGHTS NE","City":"ALBUQUERQUE","State":"NM","Billing_Status":"Active Billable","Description":"Retail -Grocery"}},{"type":"Feature","geometry":{"type":"Point","coordinates":[-106.659465,35.196564]},"properties":{"Name":"FARMERS MARKET","Nature_of_Business":" ","Address":"10020 COORS BYPASS BLVD NW","City":"ALBUQUERQUE","State":"NM","Billing_Status":"Active Billable","Description":"Retail -Grocery"}},{"type":"Feature","geometry":{"type":"Point","coordinates":[-106.644829,35.106656]},"properties":{"Name":"FREEWAY LIQUORS","Nature_of_Business":"GROCERY","Address":"2034 2ND ST NW","City":"ALBUQUERQUE","State":"NM","Billing_Status":"Active Billable","Description":"Retail -Grocery"}},{"type":"Feature","geometry":{"type":"Point","coordinates":[-106.654463,35.124511]},"properties":{"Name":"FRUIT BASKET","Nature_of_Business":"FRESH PRODUCE","Address":"3821 12TH ST NW","City":"ALBUQUERQUE","State":"NM","Billing_Status":"Active Billable","Description":"Retail -Grocery"}},{"type":"Feature","geometry":{"type":"Point","coordinates":[-106.559255,35.07612]},"properties":{"Name":"G AND H ORIENTAL MARKET LLC","Nature_of_Business":"GROCERY STORE","Address":"129 PENNSYLVANIA NE","City":"ALBUQUERQUE","State":"NM","Billing_Status":"Active Billable","Description":"Retail -Grocery"}},{"type":"Feature","geometry":{"type":"Point","coordinates":[-106.616101,35.073643]},"properties":{"Name":"GARFIELD MARKET","Nature_of_Business":"GROCERY","Address":"2628 GARFIELD AV SE","City":"ALBUQUERQUE","State":"NM","Billing_Status":"Active Billable","Description":"Retail -Grocery"}},{"type":"Feature","geometry":{"type":"Point","coordinates":[-106.701292,35.112468]},"properties":{"Name":"GNC STORE 8785","Nature_of_Business":"RETAIL VITAMINS","Address":"5211 OURAY RD NW","City":"ALBUQUERQUE","State":"NM","Billing_Status":"Active Billable","Description":"Retail -Grocery"}},{"type":"Feature","geometry":{"type":"Point","coordinates":[-106.7002,35.070031]},"properties":{"Name":"HECTORS BAKERY","Nature_of_Business":"BAKERY","Address":"921 OLD COORS DR SW","City":"ALBUQUERQUE","State":"NM","Billing_Status":"Active Billable","Description":"Retail -Grocery"}},{"type":"Feature","geometry":{"type":"Point","coordinates":[-106.646694,35.110416]},"properties":{"Name":"HI LO MARKET","Nature_of_Business":"MARKET","Address":"2513 4TH ST NW","City":"ALBUQUERQUE","State":"NM","Billing_Status":"Active Billable","Description":"Retail -Grocery"}},{"type":"Feature","geometry":{"type":"Point","coordinates":[-106.701764,35.120174]},"properties":{"Name":"JOHN BROOKS SUPERMARKET 892","Nature_of_Business":"GROCERY","Address":"3301 COORS BLVD NW","City":"ALBUQUERQUE","State":"NM","Billing_Status":"Active Billable","Description":"Retail -Grocery"}},{"type":"Feature","geometry":{"type":"Point","coordinates":[-106.653829,35.122413]},"properties":{"Name":"JOHN BROOKS SUPERMART 270","Nature_of_Business":"GROCERY","Address":"1130 CANDELARIA RD NW","City":"ALBUQUERQUE","State":"NM","Billing_Status":"Active Billable","Description":"Retail -Grocery"}},{"type":"Feature","geometry":{"type":"Point","coordinates":[-106.659825,35.077281]},"properties":{"Name":"JUNGLE WHEELS","Nature_of_Business":"CONCESSIONS","Address":"903 10TH ST SW","City":"ALBUQUERQUE","State":"NM","Billing_Status":"Active Billable","Description":"Retail -Grocery"}},{"type":"Feature","geometry":{"type":"Point","coordinates":[-106.604108,35.10217]},"properties":{"Name":"K MART 4136","Nature_of_Business":"RETAILER","Address":"2100 CARLISLE BLVD NE","City":"ALBUQUERQUE","State":"NM","Billing_Status":"Active Billable","Description":"Retail -Grocery"}},{"type":"Feature","geometry":{"type":"Point","coordinates":[-106.684427,35.151482]},"properties":{"Name":"KELLERS FARM STORES","Nature_of_Business":"MEAT MARKET","Address":"6100 COORS BLVD NW","City":"ALBUQUERQUE","State":"NM","Billing_Status":"Active Billable","Description":"Retail -Grocery"}},{"type":"Feature","geometry":{"type":"Point","coordinates":[-106.524354,35.107965]},"properties":{"Name":"KIMS ORIENTAL MARKET","Nature_of_Business":"GROCERY","Address":"2306 MORRIS RD NE","City":"ALBUQUERQUE","State":"NM","Billing_Status":"Active Billable","Description":"Retail -Grocery"}},{"type":"Feature","geometry":{"type":"Point","coordinates":[-106.510411,35.072104]},"properties":{"Name":"KOA","Nature_of_Business":"GROC/REST/POOLS","Address":"12400 SKYLINE RD NE","City":"ALBUQUERQUE","State":"NM","Billing_Status":"Active Billable","Description":"Retail -Grocery"}},{"type":"Feature","geometry":{"type":"Point","coordinates":[-106.605075,35.079763]},"properties":{"Name":"LA MONTANITA FOOD CO OP","Nature_of_Business":"GROCERY","Address":"3500 CENTRAL AV SE","City":"ALBUQUERQUE","State":"NM","Billing_Status":"Active Billable","Description":"Retail -Grocery"}},{"type":"Feature","geometry":{"type":"Point","coordinates":[-106.653058,35.202758]},"properties":{"Name":"LA MONTANITA FOOD CO OP INC WESTSIDE","Nature_of_Business":" ","Address":"3601 OLD AIRPORT RD NW STE D & E","City":"ALBUQUERQUE","State":"NM","Billing_Status":"Active Billable","Description":"Retail -Grocery"}},{"type":"Feature","geometry":{"type":"Point","coordinates":[-106.675488,35.118263]},"properties":{"Name":"LA MONTANITA NATL. FOOD COOP.","Nature_of_Business":"GROCERY","Address":"2400 RIO GRANDE BLVD NW","City":"ALBUQUERQUE","State":"NM","Billing_Status":"Active Billable","Description":"Retail -Grocery"}},{"type":"Feature","geometry":{"type":"Point","coordinates":[-106.521642,35.132028]},"properties":{"Name":"LA VIDA LLENA","Nature_of_Business":"GROC/POOLS/PROC/REST","Address":"10501 LAGRIMA DE ORO RD NE","City":"ALBUQUERQUE","State":"NM","Billing_Status":"Active Billable","Description":"Retail -Grocery"}},{"type":"Feature","geometry":{"type":"Point","coordinates":[-106.586308,35.14838]},"properties":{"Name":"LAURENS HALLMARK","Nature_of_Business":"GREETING CARDS & GIFT","Address":"6300 SAN MATEO BLVD NE","City":"ALBUQUERQUE","State":"NM","Billing_Status":"Active Billable","Description":"Retail -Grocery"}},{"type":"Feature","geometry":{"type":"Point","coordinates":[-106.568628,35.070089]},"properties":{"Name":"LOUISIANA MEAT MARKET","Nature_of_Business":" ","Address":"520 LOUISIANA BLVD SE","City":"ALBUQUERQUE","State":"NM","Billing_Status":"Active Billable","Description":"Retail -Grocery"}},{"type":"Feature","geometry":{"type":"Point","coordinates":[-106.649693,35.107365]},"properties":{"Name":"LOVES TRAVEL STOP 210","Nature_of_Business":"LV'S CNTRY ST/SUBWAY","Address":"2200 6TH ST NW","City":"ALBUQUERQUE","State":"NM","Billing_Status":"Active Billable","Description":"Retail -Grocery"}},{"type":"Feature","geometry":{"type":"Point","coordinates":[-106.642804,35.130736]},"properties":{"Name":"LOWES 99 SUPERMARKET","Nature_of_Business":"GROCERY STORE","Address":"4701 4TH ST NW","City":"ALBUQUERQUE","State":"NM","Billing_Status":"Active Billable","Description":"Retail -Grocery"}},{"type":"Feature","geometry":{"type":"Point","coordinates":[-106.658384,35.092827]},"properties":{"Name":"LOWES SUPER SAVE GROCERY 98","Nature_of_Business":"GROCERY STORE","Address":"701 11TH ST NW","City":"ALBUQUERQUE","State":"NM","Billing_Status":"Active Billable","Description":"Retail -Grocery"}},{"type":"Feature","geometry":{"type":"Point","coordinates":[-106.641263,35.088157]},"properties":{"Name":"MANUELS MARKET","Nature_of_Business":"GROCERY","Address":"601 EDITH BLVD NE","City":"ALBUQUERQUE","State":"NM","Billing_Status":"Active Billable","Description":"Retail -Grocery"}},{"type":"Feature","geometry":{"type":"Point","coordinates":[-106.515525,35.09807]},"properties":{"Name":"MOONS COFFEE AND TEA","Nature_of_Business":" ","Address":"1605 JUAN TABO BLVD NE","City":"ALBUQUERQUE","State":"NM","Billing_Status":"Active Billable","Description":"Retail -Grocery"}},{"type":"Feature","geometry":{"type":"Point","coordinates":[-106.58302,35.147646]},"properties":{"Name":"NANTUCKET SHOALS SEAFOOD MARKET","Nature_of_Business":"GROCERY","Address":"5415 ACADEMY RD NE","City":"ALBUQUERQUE","State":"NM","Billing_Status":"Active Billable","Description":"Retail -Grocery"}},{"type":"Feature","geometry":{"type":"Point","coordinates":[-106.666232,35.182903]},"properties":{"Name":"NATURAL GROCERS BY VITAMIN COTTAGE","Nature_of_Business":"RETAIL SALES","Address":"9261 COORS BLVD NW","City":"ALBUQUERQUE","State":"NM","Billing_Status":"Active Billable","Description":"Retail -Grocery"}},{"type":"Feature","geometry":{"type":"Point","coordinates":[-106.555191,35.072808]},"properties":{"Name":"NICE N FRESH","Nature_of_Business":" ","Address":"8205 ZUNI RD SE","City":"ALBUQUERQUE","State":"NM","Billing_Status":"Active Billable","Description":"Retail -Grocery"}},{"type":"Feature","geometry":{"type":"Point","coordinates":[-106.670393,35.096672]},"properties":{"Name":"OOB 03/20/12ROCKY MTN CHOCOLATE FACTORY","Nature_of_Business":"RETAIL FOOD","Address":"303 ROMERO ST NW","City":"ALBUQUERQUE","State":"NM","Billing_Status":"Active Billable","Description":"Retail -Grocery"}},{"type":"Feature","geometry":{"type":"Point","coordinates":[-106.533129,35.072058]},"properties":{"Name":"OOB CORNER STORE 1214","Nature_of_Business":"GROCERY","Address":"10315 CENTRAL AV NE","City":"ALBUQUERQUE","State":"NM","Billing_Status":"Active Billable","Description":"Retail -Grocery"}},{"type":"Feature","geometry":{"type":"Point","coordinates":[-106.594996,35.074656]},"properties":{"Name":"OOB CORNER STORE 1237","Nature_of_Business":"GROCERY","Address":"4420 ZUNI RD SE","City":"ALBUQUERQUE","State":"NM","Billing_Status":"Active Billable","Description":"Retail -Grocery"}},{"type":"Feature","geometry":{"type":"Point","coordinates":[-106.604108,35.101471]},"properties":{"Name":"OOB PER WRITTEN REQUEST 4/25/13 LOS POBLANOS ORGANICS LLC","Nature_of_Business":"GROCERY","Address":"2000 CARLISLE AV NE","City":"ALBUQUERQUE","State":"NM","Billing_Status":"Active Billable","Description":"Retail -Grocery"}},{"type":"Feature","geometry":{"type":"Point","coordinates":[-106.515465,35.09497]},"properties":{"Name":"OOBMAI ORIENTAL MINI MARKET","Nature_of_Business":" ","Address":"1331 JUAN TABO BLVD NE STE 2HJK","City":"ALBUQUERQUE","State":"NM","Billing_Status":"Active Billable","Description":"Retail -Grocery"}},{"type":"Feature","geometry":{"type":"Point","coordinates":[-106.515525,35.09807]},"properties":{"Name":"OOBMOONS COFFEE & TEA L.L.C","Nature_of_Business":"RETAIL","Address":"1605 JUAN TABO BLVD NE","City":"ALBUQUERQUE","State":"NM","Billing_Status":"Active Billable","Description":"Retail -Grocery"}},{"type":"Feature","geometry":{"type":"Point","coordinates":[-106.701292,35.112468]},"properties":{"Name":"PURIFIED WATER TO GO 1505 LLC","Nature_of_Business":"RETAIL WATER","Address":"5241 OURAY NW","City":"ALBUQUERQUE","State":"NM","Billing_Status":"Active Billable","Description":"Retail -Grocery"}},{"type":"Feature","geometry":{"type":"Point","coordinates":[-106.6129153,35.13755052]},"properties":{"Name":"SAMS CLUB 4938","Nature_of_Business":"RETAIL SALES","Address":"1421 N RENAISSANCE BLVD NE ","City":"ALBUQUERQUE","State":"NM","Billing_Status":"Active Billable","Description":"Retail -Grocery"}},{"type":"Feature","geometry":{"type":"Point","coordinates":[-106.5294518,35.07717905]},"properties":{"Name":"SAMS CLUB 6672","Nature_of_Business":"RESTAURANT","Address":"300 EUBANK BLVD NE ","City":"ALBUQUERQUE","State":"NM","Billing_Status":"Active Billable","Description":"Retail -Grocery"}},{"type":"Feature","geometry":{"type":"Point","coordinates":[-106.6396259,35.1099927]},"properties":{"Name":"SARA LEE BAKERY STORE 2","Nature_of_Business":"DISCOUNT BAKERY","Address":"11601 MENAUL BLVD NE ","City":"ALBUQUERQUE","State":"NM","Billing_Status":"Active Billable","Description":"Retail -Grocery"}},{"type":"Feature","geometry":{"type":"Point","coordinates":[-106.63981,35.14588953]},"properties":{"Name":"SMITHS 423","Nature_of_Business":"BKRY/GROC/REST","Address":"6125 4TH ST NW ","City":"ALBUQUERQUE","State":"NM","Billing_Status":"Active Billable","Description":"Retail -Grocery"}},{"type":"Feature","geometry":{"type":"Point","coordinates":[-106.4972619,35.1583465]},"properties":{"Name":"SMITHS 439","Nature_of_Business":"BKRY/GROC/REST","Address":"4700 TRAMWAY BLVD NE ","City":"ALBUQUERQUE","State":"NM","Billing_Status":"Active Billable","Description":"Retail -Grocery"}},{"type":"Feature","geometry":{"type":"Point","coordinates":[-106.5417715,35.0876658]},"properties":{"Name":"SMITHS 446","Nature_of_Business":"BKRY/GROC/REST","Address":"6001 LOMAS BLVD NE ","City":"ALBUQUERQUE","State":"NM","Billing_Status":"Active Billable","Description":"Retail -Grocery"}},{"type":"Feature","geometry":{"type":"Point","coordinates":[-106.6761916,35.20607234]},"properties":{"Name":"SMITHS 463","Nature_of_Business":"BKRY/GROC/REST","Address":"4800 MCMAHON BLVD NW ","City":"ALBUQUERQUE","State":"NM","Billing_Status":"Active Billable","Description":"Retail -Grocery"}},{"type":"Feature","geometry":{"type":"Point","coordinates":[-106.6033391,35.09492292]},"properties":{"Name":"SMITHS 496","Nature_of_Business":"BKRY/GROC/REST","Address":"3701 CONSTITUTION AV NE ","City":"ALBUQUERQUE","State":"NM","Billing_Status":"Active Billable","Description":"Retail -Grocery"}},{"type":"Feature","geometry":{"type":"Point","coordinates":[-106.710917,35.083247]},"properties":{"Name":"SMITHS 498","Nature_of_Business":"BKRY/GROC/REST","Address":"111 COORS BLVD NW ","City":"ALBUQUERQUE","State":"NM","Billing_Status":"Active Billable","Description":"Retail -Grocery"}},{"type":"Feature","geometry":{"type":"Point","coordinates":[-106.6217179,35.0760752]},"properties":{"Name":"SMITHS FOOD AND DRUG CENTERS INC","Nature_of_Business":"BKRY/GROC/REST","Address":"320 YALE BLVD SE ","City":"ALBUQUERQUE","State":"NM","Billing_Status":"Active Billable","Description":"Retail -Grocery"}},{"type":"Feature","geometry":{"type":"Point","coordinates":[-106.4967609,35.06927187]},"properties":{"Name":"SMITHS FOOD AND DRUG CENTERS INC","Nature_of_Business":"BKRY/GROC/REST","Address":"200 TRAMWAY BLVD SE ","City":"ALBUQUERQUE","State":"NM","Billing_Status":"Active Billable","Description":"Retail -Grocery"}},{"type":"Feature","geometry":{"type":"Point","coordinates":[-106.5531932,35.14630672]},"properties":{"Name":"SMITHS FOOD AND DRUG CENTERS INC","Nature_of_Business":"BKRY/GROC/REST","Address":"8040 ACADEMY RD NE ","City":"ALBUQUERQUE","State":"NM","Billing_Status":"Active Billable","Description":"Retail -Grocery"}},{"type":"Feature","geometry":{"type":"Point","coordinates":[-106.5592914,35.1767296]},"properties":{"Name":"SMITHS FOOD AND DRUG CENTERS INC","Nature_of_Business":"BKRY/GROC/REST","Address":"8100 WYOMING BLVD NE ","City":"ALBUQUERQUE","State":"NM","Billing_Status":"Active Billable","Description":"Retail -Grocery"}},{"type":"Feature","geometry":{"type":"Point","coordinates":[-106.687847,35.17982793]},"properties":{"Name":"SMITHS FOOD AND DRUG CENTERS INC","Nature_of_Business":"BKRY/GROC/REST","Address":"8301 GOLF COURSE RD NW","City":"ALBUQUERQUE","State":"NM","Billing_Status":"Active Billable","Description":"Retail -Grocery"}},{"type":"Feature","geometry":{"type":"Point","coordinates":[-106.5307605,35.1438655]},"properties":{"Name":"SMITHS FOOD AND DRUG CENTERS INC","Nature_of_Business":"BKRY/GROC/REST","Address":"5850 EUBANK BLVD NE ","City":"ALBUQUERQUE","State":"NM","Billing_Status":"Active Billable","Description":"Retail -Grocery"}},{"type":"Feature","geometry":{"type":"Point","coordinates":[-106.5686858,35.0917224]},"properties":{"Name":"SMITHS FOOD AND DRUG CENTERS INC","Nature_of_Business":"BKRY/GROC/REST","Address":"4016 LOUISIANA BLVD NE ","City":"ALBUQUERQUE","State":"NM","Billing_Status":"Active Billable","Description":"Retail -Grocery"}},{"type":"Feature","geometry":{"type":"Point","coordinates":[-106.643198,35.207169]},"properties":{"Name":"SPROUTS FARMERS MARKET","Nature_of_Business":"","Address":"10701 CORRALES RD NW","City":"ALBUQUERQUE","State":"NM","Billing_Status":"Active Billable","Description":"Retail -Grocery"}},{"type":"Feature","geometry":{"type":"Point","coordinates":[-106.5877568,35.0867639]},"properties":{"Name":"SPROUTS FARMERS MARKET","Nature_of_Business":"","Address":"5112 LOMAS BLVD NE","City":"ALBUQUERQUE","State":"NM","Billing_Status":"Active Billable","Description":"Retail -Grocery"}},{"type":"Feature","geometry":{"type":"Point","coordinates":[-106.5863785,35.1250575]},"properties":{"Name":"SPROUTS FARMERS MARKET","Nature_of_Business":"","Address":"6300A SAN MATEO BLVD NE","City":"ALBUQUERQUE","State":"NM","Billing_Status":"Active Billable","Description":"Retail -Grocery"}},{"type":"Feature","geometry":{"type":"Point","coordinates":[-106.6454881,35.0704089]},"properties":{"Name":"STADIUM SUPER MARKET","Nature_of_Business":"","Address":"1312 BROADWAY BLVD SE","City":"ALBUQUERQUE","State":"NM","Billing_Status":"Active Billable","Description":"Retail -Grocery"}},{"type":"Feature","geometry":{"type":"Point","coordinates":[-106.5687239,35.0672239]},"properties":{"Name":"TALIN MARKET WORLD FOOD FARE","Nature_of_Business":"SUPERMARKET","Address":"88 LOUISIANA BLVD SE ","City":"ALBUQUERQUE","State":"NM","Billing_Status":"Active Billable","Description":"Retail -Grocery"}},{"type":"Feature","geometry":{"type":"Point","coordinates":[-106.5686858,35.0917224]},"properties":{"Name":"TARGET","Nature_of_Business":"","Address":"2120 LOUISIANA BLVD NE","City":"ALBUQUERQUE","State":"NM","Billing_Status":"Active Billable","Description":"Retail -Grocery"}},{"type":"Feature","geometry":{"type":"Point","coordinates":[-106.5474338,35.13060796]},"properties":{"Name":"TARGET STORE 356","Nature_of_Business":"RESTAURANT","Address":"8710 MONTGOMERY BLVD NE ","City":"ALBUQUERQUE","State":"NM","Billing_Status":"Active Billable","Description":"Retail -Grocery"}},{"type":"Feature","geometry":{"type":"Point","coordinates":[-106.5272364,35.08583395]},"properties":{"Name":"TARGET STORE 357","Nature_of_Business":"RESTAURANT","Address":"11120 LOMAS BLVD NE ","City":"ALBUQUERQUE","State":"NM","Billing_Status":"Active Billable","Description":"Retail -Grocery"}},{"type":"Feature","geometry":{"type":"Point","coordinates":[-106.6671534,35.18182585]},"properties":{"Name":"TARGET STORE 625","Nature_of_Business":"RESTAURANT","Address":"9371 COORS BLVD NW","City":"ALBUQUERQUE","State":"NM","Billing_Status":"Active Billable","Description":"Retail -Grocery"}},{"type":"Feature","geometry":{"type":"Point","coordinates":[-106.5770534,35.17425945]},"properties":{"Name":"TARGET STORE T-2031","Nature_of_Business":"RETAIL STORE","Address":"6100 PASEO DEL NORTE BLVD NE ","City":"ALBUQUERQUE","State":"NM","Billing_Status":"Active Billable","Description":"Retail -Grocery"}},{"type":"Feature","geometry":{"type":"Point","coordinates":[-106.604627,35.079591]},"properties":{"Name":"THE HERB STORE","Nature_of_Business":"HEALTH PRODUCTS","Address":"107 CARLISLE BLVD SE ","City":"ALBUQUERQUE","State":"NM","Billing_Status":"Active Billable","Description":"Retail -Grocery"}},{"type":"Feature","geometry":{"type":"Point","coordinates":[-106.550968,35.175631]},"properties":{"Name":"TRADER JOES 166","Nature_of_Business":"RETAIL GROCERY STORE","Address":"8928 HOLLY AV NE ","City":"ALBUQUERQUE","State":"NM","Billing_Status":"Active Billable","Description":"Retail -Grocery"}},{"type":"Feature","geometry":{"type":"Point","coordinates":[-106.623907,35.109291]},"properties":{"Name":"TRAVEL CENTERS OF AMERICA","Nature_of_Business":"","Address":"2501 UNIVERSITY BLVD NE ","City":"ALBUQUERQUE","State":"NM","Billing_Status":"Active Billable","Description":"Retail -Grocery"}},{"type":"Feature","geometry":{"type":"Point","coordinates":[-106.621989,35.07762425]},"properties":{"Name":"TRI-H CONVENIENCE STORE","Nature_of_Business":"RETAIL","Address":"225 YALE BLVD SE ","City":"ALBUQUERQUE","State":"NM","Billing_Status":"Active Billable","Description":"Retail -Grocery"}},{"type":"Feature","geometry":{"type":"Point","coordinates":[-106.5509518,35.1380605]},"properties":{"Name":"VITAMIN COTTAGE NATURAL FD MKT","Nature_of_Business":"RETAIL SALES","Address":"4420 WYOMING BLVD NE ","City":"ALBUQUERQUE","State":"NM","Billing_Status":"Active Billable","Description":"Retail -Grocery"}},{"type":"Feature","geometry":{"type":"Point","coordinates":[-106.553672,35.146107]},"properties":{"Name":"WAL MART 824","Nature_of_Business":"RESTAURANT","Address":"8000 ACADEMY RD NE ","City":"ALBUQUERQUE","State":"NM","Billing_Status":"Active Billable","Description":"Retail -Grocery"}},{"type":"Feature","geometry":{"type":"Point","coordinates":[-106.5951382,35.1054955]},"properties":{"Name":"WAL MART MARKET #2451","Nature_of_Business":"","Address":"4700 CUTLER AV NE","City":"ALBUQUERQUE","State":"NM","Billing_Status":"Active Billable","Description":"Retail -Grocery"}},{"type":"Feature","geometry":{"type":"Point","coordinates":[-106.6396259,35.1099927]},"properties":{"Name":"WAL MART MARKET 5675","Nature_of_Business":"","Address":"11001 MENAUL BLVD NE","City":"ALBUQUERQUE","State":"NM","Billing_Status":"Active Billable","Description":"Retail -Grocery"}},{"type":"Feature","geometry":{"type":"Point","coordinates":[-106.687847,35.17980259]},"properties":{"Name":"WAL MART NEIGHBORHOOD MRKT 3317","Nature_of_Business":"RETAIL","Address":"8511 GOLF COURSE RD NW ","City":"ALBUQUERQUE","State":"NM","Billing_Status":"Active Billable","Description":"Retail -Grocery"}},{"type":"Feature","geometry":{"type":"Point","coordinates":[-106.7393663,35.05461435]},"properties":{"Name":"WAL MART NEIGHBORHOOD MRKT 3385","Nature_of_Business":"RETAIL","Address":"9600 SAGE RD SW ","City":"ALBUQUERQUE","State":"NM","Billing_Status":"Active Billable","Description":"Retail -Grocery"}},{"type":"Feature","geometry":{"type":"Point","coordinates":[-106.586338,35.075582]},"properties":{"Name":"WAL MART SUPER CENTER 0831","Nature_of_Business":"SUPERMARKET","Address":"301 SAN MATEO BLVD SE ","City":"ALBUQUERQUE","State":"NM","Billing_Status":"Active Billable","Description":"Retail -Grocery"}},{"type":"Feature","geometry":{"type":"Point","coordinates":[-106.7007698,35.11021945]},"properties":{"Name":"WAL MART SUPER CENTER 2924","Nature_of_Business":"RETAIL","Address":"2550 COORS BLVD NW ","City":"ALBUQUERQUE","State":"NM","Billing_Status":"Active Billable","Description":"Retail -Grocery"}},{"type":"Feature","geometry":{"type":"Point","coordinates":[-106.5509518,35.1380605]},"properties":{"Name":"WAL MART SUPER CENTER 5491","Nature_of_Business":"SUPER CENTER","Address":"2266 WYOMING BLVD NE ","City":"ALBUQUERQUE","State":"NM","Billing_Status":"Active Billable","Description":"Retail -Grocery"}},{"type":"Feature","geometry":{"type":"Point","coordinates":[-106.5299164,35.0790827]},"properties":{"Name":"WAL MART SUPER CENTER 835","Nature_of_Business":"RESTAURANT","Address":"400 EUBANK BLVD NE ","City":"ALBUQUERQUE","State":"NM","Billing_Status":"Active Billable","Description":"Retail -Grocery"}},{"type":"Feature","geometry":{"type":"Point","coordinates":[-106.7108788,35.02612585]},"properties":{"Name":"WAL MART SUPER CNTR 5430","Nature_of_Business":"RETAIL","Address":"3500 COORS BLVD SW ","City":"ALBUQUERQUE","State":"NM","Billing_Status":"Active Billable","Description":"Retail -Grocery"}},{"type":"Feature","geometry":{"type":"Point","coordinates":[-106.6043305,35.105702]},"properties":{"Name":"WAL MART SUPERCENTER 850","Nature_of_Business":"RESTAURANT","Address":"2701 CARLISLE BLVD NE ","City":"ALBUQUERQUE","State":"NM","Billing_Status":"Active Billable","Description":"Retail -Grocery"}},{"type":"Feature","geometry":{"type":"Point","coordinates":[-106.6050568,35.1026345]},"properties":{"Name":"WHOLE FOODS MARKET","Nature_of_Business":"GROCERY/RESTAURANT","Address":"2103 CARLISLE BLVD NE ","City":"ALBUQUERQUE","State":"NM","Billing_Status":"Active Billable","Description":"Retail -Grocery"}},{"type":"Feature","geometry":{"type":"Point","coordinates":[-106.5540904,35.14627576]},"properties":{"Name":"WHOLE FOODS MARKET","Nature_of_Business":"RETAIL GROCERY","Address":"5815 WYOMING BLVD NE ","City":"ALBUQUERQUE","State":"NM","Billing_Status":"Active Billable","Description":"Retail -Grocery"}},{"type":"Feature","geometry":{"type":"Point","coordinates":[-106.6570779,35.1942022]},"properties":{"Name":"SAMS CLUB 4703","Nature_of_Business":"RETAIL","Address":"10600 COORS BYPASS BLVD NW ","City":"ALBUQUERQUE","State":"NM","Billing_Status":"Active Billable","Description":"Retail -Grocery"}},{"type":"Feature","geometry":{"type":"Point","coordinates":[-106.5781051,35.1301098]},"properties":{"Name":"SAN PEDRO MIDDLE EAST GROCERY AND R","Nature_of_Business":"GROCERY AND RESTAURANT","Address":"4001 SAN PEDRO DR NE STE B","City":"ALBUQUERQUE","State":"NM","Billing_Status":"Active Billable","Description":"Retail -Grocery"}},{"type":"Feature","geometry":{"type":"Point","coordinates":[-106.6191959,35.1376344]},"properties":{"Name":"SHAMROCK FOODS WAREHOUSE","Nature_of_Business":"","Address":"1221 SOUTH RENAISSANCE BLVD NW","City":"ALBUQUERQUE","State":"NM","Billing_Status":"Active Billable","Description":"Retail -Grocery"}},{"type":"Feature","geometry":{"type":"Point","coordinates":[-106.5147376,35.1310143]},"properties":{"Name":"SPROUTS FARMERS MARKET","Nature_of_Business":"","Address":"11201 MONTGOMERY BLVD NE STE A","City":"ALBUQUERQUE","State":"NM","Billing_Status":"Active Billable","Description":"Retail -Grocery"}},{"type":"Feature","geometry":{"type":"Point","coordinates":[-106.707212,35.094323]},"properties":{"Name":"OOB ALLSUPS #139","Nature_of_Business":"GROCERY","Address":"5900 FORTUNA RD NW","City":"ALBUQUERQUE","State":"Retail -Grocery","Billing_Status":"","Description":""}},{"type":"Feature","geometry":{"type":"Point","coordinates":[-106.547295,35.073543]},"properties":{"Name":"OOB BABYLON GROCERY AND CAFE","Nature_of_Business":"FOOD SERVICE AND GROCERY","Address":"8922 CENTRAL AV SE","City":"ALBUQUERQUE","State":"Retail -Grocery","Billing_Status":"","Description":""}},{"type":"Feature","geometry":{"type":"Point","coordinates":[-106.645646,35.068759]},"properties":{"Name":"OOB BROADWAY CHEVRON","Nature_of_Business":"OIL & GAS","Address":"1401 BROADWAY BLVD SE","City":"ALBUQUERQUE","State":"Retail -Grocery","Billing_Status":"","Description":""}},{"type":"Feature","geometry":{"type":"Point","coordinates":[-106.604108,35.10168]},"properties":{"Name":"OOB CARL MART","Nature_of_Business":"CONVENIENCE GAS STATION/S","Address":"2016 CARLISLE BLVD NE","City":"ALBUQUERQUE","State":"Retail -Grocery","Billing_Status":"","Description":""}},{"type":"Feature","geometry":{"type":"Point","coordinates":[-106.554119,35.074408]},"properties":{"Name":"OOB CARNECERIA FLORES INC","Nature_of_Business":" ","Address":"8319 CENTRAL AV NE","City":"ALBUQUERQUE","State":"Retail -Grocery","Billing_Status":"","Description":""}},{"type":"Feature","geometry":{"type":"Point","coordinates":[-106.568628,35.070089]},"properties":{"Name":"OOB CARNICERIA CUAUHTEMOC","Nature_of_Business":" ","Address":"520 LOUISIANA BLVD NE","City":"ALBUQUERQUE","State":"Retail -Grocery","Billing_Status":"","Description":""}},{"type":"Feature","geometry":{"type":"Point","coordinates":[-106.568628,35.070089]},"properties":{"Name":"OOB CARNICERIA CUAUHTEMOC","Nature_of_Business":"GROCERY AND MEAT MARKET","Address":"520 LOUISIANA BLVD SE","City":"ALBUQUERQUE","State":"Retail -Grocery","Billing_Status":"","Description":""}},{"type":"Feature","geometry":{"type":"Point","coordinates":[-106.568628,35.070089]},"properties":{"Name":"OOB CARNICERIA CUAUHTEMOC","Nature_of_Business":" ","Address":"520 LOUISIANA BLVD SE","City":"ALBUQUERQUE","State":"Retail -Grocery","Billing_Status":"","Description":""}},{"type":"Feature","geometry":{"type":"Point","coordinates":[-106.568628,35.070089]},"properties":{"Name":"OOB CARNICERIA LOS POTRILLOS","Nature_of_Business":"MEAT MARKET","Address":"520 LOUISIANA BLVD SE","City":"ALBUQUERQUE","State":"Retail -Grocery","Billing_Status":"","Description":""}},{"type":"Feature","geometry":{"type":"Point","coordinates":[-106.651995,35.084583]},"properties":{"Name":"OOB CENTRAL MARKET","Nature_of_Business":"CONVEINENCE STORE","Address":"408 CENTRAL AV SW","City":"ALBUQUERQUE","State":"Retail -Grocery","Billing_Status":"","Description":""}},{"type":"Feature","geometry":{"type":"Point","coordinates":[-106.651995,35.084583]},"properties":{"Name":"OOB CENTRAL MARKET","Nature_of_Business":" ","Address":"408 CENTRAL AV SW","City":"ALBUQUERQUE","State":"Retail -Grocery","Billing_Status":"","Description":""}},{"type":"Feature","geometry":{"type":"Point","coordinates":[-106.706141,35.103003]},"properties":{"Name":"OOB CIRCLE K #8934","Nature_of_Business":"GROCERY","Address":"1535 COORS BLVD NW","City":"ALBUQUERQUE","State":"Retail -Grocery","Billing_Status":"","Description":""}},{"type":"Feature","geometry":{"type":"Point","coordinates":[-106.663599,35.185031]},"properties":{"Name":"OOB CIRCLE K #8946","Nature_of_Business":"GROCERY","Address":"9320 COORS BLVD NW","City":"ALBUQUERQUE","State":"Retail -Grocery","Billing_Status":"","Description":""}},{"type":"Feature","geometry":{"type":"Point","coordinates":[-106.586785,35.077743]},"properties":{"Name":"OOB CIRCLE K 8936","Nature_of_Business":"GROCERY","Address":"5210 CENTRAL AV SE","City":"ALBUQUERQUE","State":"Retail -Grocery","Billing_Status":"","Description":""}},{"type":"Feature","geometry":{"type":"Point","coordinates":[-106.592522,35.174618]},"properties":{"Name":"OOB CIRCLE K 8937","Nature_of_Business":"GROCERY","Address":"4701 PASEO DEL NORTE NW","City":"ALBUQUERQUE","State":"Retail -Grocery","Billing_Status":"","Description":""}},{"type":"Feature","geometry":{"type":"Point","coordinates":[-106.550729,35.074048]},"properties":{"Name":"OOB CIRCLE K 8940","Nature_of_Business":"GROCERY","Address":"8601 CENTRAL AV NE","City":"ALBUQUERQUE","State":"Retail -Grocery","Billing_Status":"","Description":""}},{"type":"Feature","geometry":{"type":"Point","coordinates":[-106.593347,35.155974]},"properties":{"Name":"OOB CIRCLE K 8941","Nature_of_Business":"GROCERY","Address":"4300 OSUNA RD NE","City":"ALBUQUERQUE","State":"Retail -Grocery","Billing_Status":"","Description":""}},{"type":"Feature","geometry":{"type":"Point","coordinates":[-106.557414,35.158747]},"properties":{"Name":"OOB CIRCLE K 8942","Nature_of_Business":"GROCERY","Address":"8101 HARPER RD NE","City":"ALBUQUERQUE","State":"Retail -Grocery","Billing_Status":"","Description":""}},{"type":"Feature","geometry":{"type":"Point","coordinates":[-106.643085,35.090153]},"properties":{"Name":"OOB CIRCLE K 8943","Nature_of_Business":"GROCERY","Address":"300 LOMAS BLVD NE","City":"ALBUQUERQUE","State":"Retail -Grocery","Billing_Status":"","Description":""}},{"type":"Feature","geometry":{"type":"Point","coordinates":[-106.613015,35.134715]},"properties":{"Name":"OOB CIRCLE K 8944","Nature_of_Business":"GROCERY","Address":"1400 MONTANO RD NE","City":"ALBUQUERQUE","State":"Retail -Grocery","Billing_Status":"","Description":""}},{"type":"Feature","geometry":{"type":"Point","coordinates":[-106.648375,35.095091]},"properties":{"Name":"OOB CONFECTIONALLY YOURS OOB","Nature_of_Business":"GROCERY","Address":"40 3RD ST NW","City":"ALBUQUERQUE","State":"Retail -Grocery","Billing_Status":"","Description":""}},{"type":"Feature","geometry":{"type":"Point","coordinates":[-106.533129,35.072058]},"properties":{"Name":"OOB CORNER STORE 1214","Nature_of_Business":"GROCERY","Address":"10315 CENTRAL AV NE","City":"ALBUQUERQUE","State":"Retail -Grocery","Billing_Status":"","Description":""}},{"type":"Feature","geometry":{"type":"Point","coordinates":[-106.594996,35.074656]},"properties":{"Name":"OOB CORNER STORE 1237","Nature_of_Business":"GROCERY","Address":"4420 ZUNI RD SE","City":"ALBUQUERQUE","State":"Retail -Grocery","Billing_Status":"","Description":""}},{"type":"Feature","geometry":{"type":"Point","coordinates":[-106.678956,35.199679]},"properties":{"Name":"OOB CVS PHARMACY #9310","Nature_of_Business":"RETAIL PHARMACY","Address":"4665 IRVING BLVD NW","City":"ALBUQUERQUE","State":"Retail -Grocery","Billing_Status":"","Description":""}},{"type":"Feature","geometry":{"type":"Point","coordinates":[-106.616397,35.109114]},"properties":{"Name":"OOB DEES DENTED CAN","Nature_of_Business":"GROCERY OUTLET","Address":"2424 MENAUL BLVD NE","City":"ALBUQUERQUE","State":"Retail -Grocery","Billing_Status":"","Description":""}},{"type":"Feature","geometry":{"type":"Point","coordinates":[-106.578761,35.087458]},"properties":{"Name":"OOB DOLLAR TREE #2653","Nature_of_Business":"RETAIL  SALES","Address":"6001 LOMAS BLVD NE STE G","City":"ALBUQUERQUE","State":"Retail -Grocery","Billing_Status":"","Description":""}},{"type":"Feature","geometry":{"type":"Point","coordinates":[-106.695967,35.083318]},"properties":{"Name":"OOB DOLLY MADISON BAKERY","Nature_of_Business":"GROCERY","Address":"5201 CENTRAL AV NW","City":"ALBUQUERQUE","State":"Retail -Grocery","Billing_Status":"","Description":""}},{"type":"Feature","geometry":{"type":"Point","coordinates":[-106.546988,35.073568]},"properties":{"Name":"OOB DULCERIA PUEBLA LLC","Nature_of_Business":"CANDY SALES","Address":"9001 CENTRAL AV NE STE E","City":"ALBUQUERQUE","State":"Retail -Grocery","Billing_Status":"","Description":""}},{"type":"Feature","geometry":{"type":"Point","coordinates":[-106.683023,35.065063]},"properties":{"Name":"OOB FAMILIA MEXICANA","Nature_of_Business":"GROCERY-FOOD/MEAT/RETAIL","Address":"1720 BRIDGE BLVD SW STE 105","City":"ALBUQUERQUE","State":"Retail -Grocery","Billing_Status":"","Description":""}},{"type":"Feature","geometry":{"type":"Point","coordinates":[-106.533208,35.124072]},"properties":{"Name":"OOB FARMERS MARKET","Nature_of_Business":"GROCERY","Address":"3702 EUBANK BLVD NE","City":"ALBUQUERQUE","State":"Retail -Grocery","Billing_Status":"","Description":""}},{"type":"Feature","geometry":{"type":"Point","coordinates":[-106.586078,35.087701]},"properties":{"Name":"OOB FREMONTS FINE FOODS","Nature_of_Business":"RETAIL FOOD RESTAURANT","Address":"1100 SAN MATEO BLVD NE STE 50","City":"ALBUQUERQUE","State":"Retail -Grocery","Billing_Status":"","Description":""}},{"type":"Feature","geometry":{"type":"Point","coordinates":[-106.618335,35.077131]},"properties":{"Name":"OOB FRESH FOR LESS INC","Nature_of_Business":" ","Address":"301 STANFORD DR SE","City":"ALBUQUERQUE","State":"Retail -Grocery","Billing_Status":"","Description":""}},{"type":"Feature","geometry":{"type":"Point","coordinates":[-106.559255,35.07612]},"properties":{"Name":"OOB G & H ORIENTAL MARKET","Nature_of_Business":"RETAIL GROCERY","Address":"129 PENNSYLVANIA ST NE","City":"ALBUQUERQUE","State":"Retail -Grocery","Billing_Status":"","Description":""}},{"type":"Feature","geometry":{"type":"Point","coordinates":[-106.710835,35.088781]},"properties":{"Name":"OOB GTS","Nature_of_Business":"CIGARETT AND PREPKG CANDY","Address":"455 COORS BLVD NW","City":"ALBUQUERQUE","State":"Retail -Grocery","Billing_Status":"","Description":""}},{"type":"Feature","geometry":{"type":"Point","coordinates":[-106.596705,35.075706]},"properties":{"Name":"OOB HIGHLAND CHEVRON","Nature_of_Business":"OIL & GAS","Address":"4320 LEAD AV SE","City":"ALBUQUERQUE","State":"Retail -Grocery","Billing_Status":"","Description":""}},{"type":"Feature","geometry":{"type":"Point","coordinates":[-106.585063,35.109269]},"properties":{"Name":"OOB HONEY BAKED HAM COMPANY  THE","Nature_of_Business":"GROCERY","Address":"5307 MENAUL BLVD NE","City":"ALBUQUERQUE","State":"Retail -Grocery","Billing_Status":"","Description":""}},{"type":"Feature","geometry":{"type":"Point","coordinates":[-106.651308,35.083557]},"properties":{"Name":"OOB HOT DOG MAN COMMISARY","Nature_of_Business":"SOUP & SALAD SANDWICH","Address":"315 GOLD AV SW","City":"ALBUQUERQUE","State":"Retail -Grocery","Billing_Status":"","Description":""}},{"type":"Feature","geometry":{"type":"Point","coordinates":[-106.550898,35.129901]},"properties":{"Name":"OOB INDIA PALACE RESTAURANT","Nature_of_Business":"RESTAURANT","Address":"4410 WYOMING BLVD NE","City":"ALBUQUERQUE","State":"Retail -Grocery","Billing_Status":"","Description":""}},{"type":"Feature","geometry":{"type":"Point","coordinates":[-106.593864,35.078533]},"properties":{"Name":"OOB INDOPAK MORE THAN A STORE","Nature_of_Business":"SPECIALTY STORE","Address":"4514 CENTRAL AV SE","City":"ALBUQUERQUE","State":"Retail -Grocery","Billing_Status":"","Description":""}},{"type":"Feature","geometry":{"type":"Point","coordinates":[-106.577501,35.078005]},"properties":{"Name":"OOB INDOPAK MORE THAN A STORE","Nature_of_Business":"RETAIL","Address":"137 B SAN PEDRO DR NE","City":"ALBUQUERQUE","State":"Retail -Grocery","Billing_Status":"","Description":""}},{"type":"Feature","geometry":{"type":"Point","coordinates":[-106.67221,35.109597]},"properties":{"Name":"OOB J N J MINIMART AND PRODUCE","Nature_of_Business":"MINIMART PRODUCE","Address":"1421 RIO GRANDE BLVD NW","City":"ALBUQUERQUE","State":"Retail -Grocery","Billing_Status":"","Description":""}},{"type":"Feature","geometry":{"type":"Point","coordinates":[-106.579604,35.109219]},"properties":{"Name":"OOB JEMS PRODUCE STATION","Nature_of_Business":" ","Address":"5805 MENAUL BLVD NE","City":"ALBUQUERQUE","State":"Retail -Grocery","Billing_Status":"","Description":""}},{"type":"Feature","geometry":{"type":"Point","coordinates":[-106.52696,35.086997]},"properties":{"Name":"OOB JENNY CRAIG WGHT LOSS CTR","Nature_of_Business":"GROCERY","Address":"11130 LOMAS BLVD NE","City":"ALBUQUERQUE","State":"Retail -Grocery","Billing_Status":"","Description":""}},{"type":"Feature","geometry":{"type":"Point","coordinates":[-106.617922,35.109113]},"properties":{"Name":"OOB LI DELI","Nature_of_Business":" ","Address":"2300 MENAUL BLVD NE","City":"ALBUQUERQUE","State":"Retail -Grocery","Billing_Status":"","Description":""}},{"type":"Feature","geometry":{"type":"Point","coordinates":[-106.55974,35.175553]},"properties":{"Name":"OOB LINDSAYS HALLMARK II","Nature_of_Business":"GREETING CARDS & GIFT","Address":"8104 WYOMING BLVD NE","City":"ALBUQUERQUE","State":"Retail -Grocery","Billing_Status":"","Description":""}},{"type":"Feature","geometry":{"type":"Point","coordinates":[-106.653145,35.088403]},"properties":{"Name":"OOB MARQUETTE GIFTS","Nature_of_Business":"GIFTS","Address":"500 MARQUETTE RD NW STE 250","City":"ALBUQUERQUE","State":"Retail -Grocery","Billing_Status":"","Description":""}},{"type":"Feature","geometry":{"type":"Point","coordinates":[-106.646668,35.110538]},"properties":{"Name":"OOB MENAUL GAS & FOOD MART","Nature_of_Business":"GAS STATION","Address":"2523 4TH ST NW","City":"ALBUQUERQUE","State":"Retail -Grocery","Billing_Status":"","Description":""}},{"type":"Feature","geometry":{"type":"Point","coordinates":[-106.554119,35.074408]},"properties":{"Name":"OOB MI PUEBLITO MEAT MARKET","Nature_of_Business":" ","Address":"8319 CENTRAL AV NE","City":"ALBUQUERQUE","State":"Retail -Grocery","Billing_Status":"","Description":""}},{"type":"Feature","geometry":{"type":"Point","coordinates":[-106.697072,35.082869]},"properties":{"Name":"OOB NICE AND FRESH CENTRAL","Nature_of_Business":" ","Address":"5312 CENTRAL AV SW","City":"ALBUQUERQUE","State":"Retail -Grocery","Billing_Status":"","Description":""}},{"type":"Feature","geometry":{"type":"Point","coordinates":[-106.697072,35.082869]},"properties":{"Name":"OOB NICE N FRESH","Nature_of_Business":"GROCERY STORE","Address":"5312 CENTRAL AV SW","City":"ALBUQUERQUE","State":"Retail -Grocery","Billing_Status":"","Description":""}},{"type":"Feature","geometry":{"type":"Point","coordinates":[-106.697072,35.082869]},"properties":{"Name":"OOB NICE N FRESH","Nature_of_Business":"GROCERY STORE","Address":"5312 CENTRAL AV SW","City":"ALBUQUERQUE","State":"Retail -Grocery","Billing_Status":"","Description":""}},{"type":"Feature","geometry":{"type":"Point","coordinates":[-106.555191,35.072808]},"properties":{"Name":"OOB NICE N FRESH","Nature_of_Business":"GROCERY STORE","Address":"8205 ZUNI RD SE","City":"ALBUQUERQUE","State":"Retail -Grocery","Billing_Status":"","Description":""}},{"type":"Feature","geometry":{"type":"Point","coordinates":[-106.555191,35.072808]},"properties":{"Name":"OOB NICE N FRESH","Nature_of_Business":"GROCERY STORE","Address":"8205 ZUNI SE","City":"ALBUQUERQUE","State":"Retail -Grocery","Billing_Status":"","Description":""}},{"type":"Feature","geometry":{"type":"Point","coordinates":[-106.641374,35.138337]},"properties":{"Name":"OOB NICKS PLATEAU","Nature_of_Business":"GROCERY","Address":"5565 4TH ST NW","City":"ALBUQUERQUE","State":"Retail -Grocery","Billing_Status":"","Description":""}},{"type":"Feature","geometry":{"type":"Point","coordinates":[-106.515158,35.066391]},"properties":{"Name":"OOB O AND A MINI MART","Nature_of_Business":"STORE","Address":"504 JUAN TABO BLVD SE","City":"ALBUQUERQUE","State":"Retail -Grocery","Billing_Status":"","Description":""}},{"type":"Feature","geometry":{"type":"Point","coordinates":[-106.598589,35.079207]},"properties":{"Name":"OOB PER CHANGE IN OWNERSHIP TOWN LODGE MOTEL","Nature_of_Business":"MOTEL","Address":"4101 CENTRAL AV NE","City":"ALBUQUERQUE","State":"Retail -Grocery","Billing_Status":"","Description":""}},{"type":"Feature","geometry":{"type":"Point","coordinates":[-106.521802,35.108763]},"properties":{"Name":"OOB PER EHSII ZAHRA 01/01/14 DHAKA BAZAAR USA","Nature_of_Business":"MEAT & DELI MKT","Address":"10700 MENAUL BLVD NE STE B","City":"ALBUQUERQUE","State":"Retail -Grocery","Billing_Status":"","Description":""}},{"type":"Feature","geometry":{"type":"Point","coordinates":[-106.568628,35.070089]},"properties":{"Name":"OOB PER WRITTEN REQUEST 03/11/13 SUPER CARNICERIA LA MEXICANA","Nature_of_Business":" ","Address":"520 LOUISIANA BLVD SE","City":"ALBUQUERQUE","State":"Retail -Grocery","Billing_Status":"","Description":""}},{"type":"Feature","geometry":{"type":"Point","coordinates":[-106.618335,35.077131]},"properties":{"Name":"OOB PER WRITTEN REQUEST 12/2/13 FARM FRESH","Nature_of_Business":" ","Address":"301 STANFORD DR SE","City":"ALBUQUERQUE","State":"Retail -Grocery","Billing_Status":"","Description":""}},{"type":"Feature","geometry":{"type":"Point","coordinates":[-106.586346,35.082351]},"properties":{"Name":"OOB PER WRITTEN REQUEST 2/12/15 ARIANA HALAL MARKET INC","Nature_of_Business":"RETAIL - GROCERY","Address":"607 SAN MATEO BLVD NE","City":"ALBUQUERQUE","State":"Retail -Grocery","Billing_Status":"","Description":""}},{"type":"Feature","geometry":{"type":"Point","coordinates":[-106.604108,35.101471]},"properties":{"Name":"OOB PER WRITTEN REQUEST 4/25/13 LOS POBLANOS ORGANICS LLC","Nature_of_Business":"GROCERY","Address":"2000 CARLISLE AV NE","City":"ALBUQUERQUE","State":"Retail -Grocery","Billing_Status":"","Description":""}},{"type":"Feature","geometry":{"type":"Point","coordinates":[-106.686096,35.085324]},"properties":{"Name":"OOB PER WRITTEN REQUEST K MART","Nature_of_Business":"STORE","Address":"4208 CENTRAL AV SW","City":"ALBUQUERQUE","State":"Retail -Grocery","Billing_Status":"","Description":""}},{"type":"Feature","geometry":{"type":"Point","coordinates":[-106.577271,35.130958]},"properties":{"Name":"OOB PER WRITTEN REQUEST TOKYO JAPANESE  MARKET","Nature_of_Business":"ORIENTAL MARKET","Address":"6207 MONTGOMERY BLVD NE","City":"ALBUQUERQUE","State":"Retail -Grocery","Billing_Status":"","Description":""}},{"type":"Feature","geometry":{"type":"Point","coordinates":[-106.674735,35.180308]},"properties":{"Name":"OOB PERK UP ESPRESSO LLC","Nature_of_Business":"DRIVE THRU COFFEE SHOP","Address":"9111 EAGLE RANCH RD NW","City":"ALBUQUERQUE","State":"Retail -Grocery","Billing_Status":"","Description":""}},{"type":"Feature","geometry":{"type":"Point","coordinates":[-106.547337,35.072781]},"properties":{"Name":"OOB PERWRITTEN REQUEST JOHN BROOKS 1312","Nature_of_Business":"GROCERY","Address":"5555 ZUNI BLVD SE","City":"ALBUQUERQUE","State":"Retail -Grocery","Billing_Status":"","Description":""}},{"type":"Feature","geometry":{"type":"Point","coordinates":[-106.560006,35.175211]},"properties":{"Name":"OOB PURIFIED WATER TO GO","Nature_of_Business":"RETAIL SALES","Address":"8001 WYOMING BLVD NE STE B5","City":"ALBUQUERQUE","State":"Retail -Grocery","Billing_Status":"","Description":""}},{"type":"Feature","geometry":{"type":"Point","coordinates":[-106.687893,35.177806]},"properties":{"Name":"OOB PURIFIED WATER TO GO PLUS","Nature_of_Business":"RETAIL WATER & VITAMI","Address":"8201 GOLF COURSE RD NW","City":"ALBUQUERQUE","State":"Retail -Grocery","Billing_Status":"","Description":""}},{"type":"Feature","geometry":{"type":"Point","coordinates":[-106.499931,35.086468]},"properties":{"Name":"OOB PWD 07.10.14 ALBERTSONS #910","Nature_of_Business":"GROC/BKRY/REST","Address":"13201 LOMAS BLVD NE","City":"ALBUQUERQUE","State":"Retail -Grocery","Billing_Status":"","Description":""}},{"type":"Feature","geometry":{"type":"Point","coordinates":[-106.550908,35.132191]},"properties":{"Name":"OOB QUARTERS REST AND LOUNGE","Nature_of_Business":"BAR/RESTAURANT","Address":"4516 WYOMING BLVD NE","City":"ALBUQUERQUE","State":"Retail -Grocery","Billing_Status":"","Description":""}},{"type":"Feature","geometry":{"type":"Point","coordinates":[-106.645448,35.068772]},"properties":{"Name":"OOB SAMANTHAS PRODUCE AND MORE","Nature_of_Business":" ","Address":"1430 BROADWAY BLVD SE","City":"ALBUQUERQUE","State":"Retail -Grocery","Billing_Status":"","Description":""}},{"type":"Feature","geometry":{"type":"Point","coordinates":[-106.586425,35.065295]},"properties":{"Name":"OOB SANDIA FRUITS AND VEGETABLES","Nature_of_Business":"RETAIL SALE OF FOOD","Address":"1115 SAN MATEO BLVD SE","City":"ALBUQUERQUE","State":"Retail -Grocery","Billing_Status":"","Description":""}},{"type":"Feature","geometry":{"type":"Point","coordinates":[-106.699769,35.071121]},"properties":{"Name":"OOB SAVEWISE FOODS INC","Nature_of_Business":"RETAIL FOOD STORE","Address":"849 OLD COORS DR SW","City":"ALBUQUERQUE","State":"Retail -Grocery","Billing_Status":"","Description":""}},{"type":"Feature","geometry":{"type":"Point","coordinates":[-106.604055,35.10972]},"properties":{"Name":"OOB SMITHS 429","Nature_of_Business":"BKRY/GROC/REST","Address":"2620 CARLISLE BLVD NE","City":"ALBUQUERQUE","State":"Retail -Grocery","Billing_Status":"","Description":""}},{"type":"Feature","geometry":{"type":"Point","coordinates":[-106.595143,35.107409]},"properties":{"Name":"OOB SOUTHWEST CASH & CARRY","Nature_of_Business":"WHOLESALE","Address":"4425 PROSPECT AV NE","City":"ALBUQUERQUE","State":"Retail -Grocery","Billing_Status":"","Description":""}},{"type":"Feature","geometry":{"type":"Point","coordinates":[-106.515121,35.130564]},"properties":{"Name":"OOB SOUTHWEST GIFT BASKETS","Nature_of_Business":"RETAIL SALES","Address":"11200 MONTGOMERY BLVD NE STE 8","City":"ALBUQUERQUE","State":"Retail -Grocery","Billing_Status":"","Description":""}},{"type":"Feature","geometry":{"type":"Point","coordinates":[-106.645474,35.070031]},"properties":{"Name":"OOB STADIUM VALUE-WAY #226","Nature_of_Business":"GROCERY","Address":"1312 BROADWAY BLVD SE","City":"ALBUQUERQUE","State":"Retail -Grocery","Billing_Status":"","Description":""}},{"type":"Feature","geometry":{"type":"Point","coordinates":[-106.587622,35.087383]},"properties":{"Name":"OOB SUNFLOWER FARMERS MARKET","Nature_of_Business":"GROCERY STORE","Address":"5112 LOMAS BLVD NE","City":"ALBUQUERQUE","State":"Retail -Grocery","Billing_Status":"","Description":""}},{"type":"Feature","geometry":{"type":"Point","coordinates":[-106.586308,35.14838]},"properties":{"Name":"OOB SUNFLOWER FARMERS MARKET","Nature_of_Business":"GROCERY STORE","Address":"6300 SAN MATEO BLVD NE A","City":"ALBUQUERQUE","State":"Retail -Grocery","Billing_Status":"","Description":""}},{"type":"Feature","geometry":{"type":"Point","coordinates":[-106.514644,35.130779]},"properties":{"Name":"OOB SUNFLOWER FARMERS MARKET","Nature_of_Business":"GROCERY STORE","Address":"11205 MONTGOMERY BLVD NE","City":"ALBUQUERQUE","State":"Retail -Grocery","Billing_Status":"","Description":""}},{"type":"Feature","geometry":{"type":"Point","coordinates":[-106.647017,35.203565]},"properties":{"Name":"OOB SUNFLOWER MARKET","Nature_of_Business":"FARMERS SUPERMARKET","Address":"10701 COORS BLVD NW STE 2","City":"ALBUQUERQUE","State":"Retail -Grocery","Billing_Status":"","Description":""}},{"type":"Feature","geometry":{"type":"Point","coordinates":[-106.692326,35.083934]},"properties":{"Name":"OOB SUPER 6 MOTEL/CIBOLA COURT","Nature_of_Business":"MOTEL","Address":"4814 CENTRAL AV SW","City":"ALBUQUERQUE","State":"Retail -Grocery","Billing_Status":"","Description":""}},{"type":"Feature","geometry":{"type":"Point","coordinates":[-106.570782,35.109014]},"properties":{"Name":"OOB SWEET FACTORY #3141","Nature_of_Business":"RETAIL CANDY STORE","Address":"6600 MENAUL NE STE 40-9","City":"ALBUQUERQUE","State":"Retail -Grocery","Billing_Status":"","Description":""}},{"type":"Feature","geometry":{"type":"Point","coordinates":[-106.670689,35.106346]},"properties":{"Name":"OOB TEXACO FOOD MART","Nature_of_Business":"GROCERY","Address":"1050 RIO GRANDE BLVD NW","City":"ALBUQUERQUE","State":"Retail -Grocery","Billing_Status":"","Description":""}},{"type":"Feature","geometry":{"type":"Point","coordinates":[-106.583421,35.138573]},"properties":{"Name":"OOB THE JAVA STATION ROASTERY INC","Nature_of_Business":"COFFEE/BULK TEA/OFFICE","Address":"5600 MCLEOD RD NE STE M","City":"ALBUQUERQUE","State":"Retail -Grocery","Billing_Status":"","Description":""}},{"type":"Feature","geometry":{"type":"Point","coordinates":[-106.551951,35.069024]},"properties":{"Name":"OOB THE SANDIA MARKET","Nature_of_Business":"CONVENIENCE STORE","Address":"8516 TRUMBULL AV SE","City":"ALBUQUERQUE","State":"Retail -Grocery","Billing_Status":"","Description":""}},{"type":"Feature","geometry":{"type":"Point","coordinates":[-106.658842,35.196123]},"properties":{"Name":"OOB UA STARPORT","Nature_of_Business":"MOVIE THEATRE","Address":"10000 COORS BYPASS BLVD NW","City":"ALBUQUERQUE","State":"Retail -Grocery","Billing_Status":"","Description":""}},{"type":"Feature","geometry":{"type":"Point","coordinates":[-106.655323,35.122821]},"properties":{"Name":"OOB VALLEY CONOCO REDIMART","Nature_of_Business":"OIL & GAS","Address":"1201 CANDELARIA RD NW","City":"ALBUQUERQUE","State":"Retail -Grocery","Billing_Status":"","Description":""}},{"type":"Feature","geometry":{"type":"Point","coordinates":[-106.639008,35.138608]},"properties":{"Name":"OOB VITAMIN TRADER THE","Nature_of_Business":"RETAIL","Address":"211 MONTANO RD NW","City":"ALBUQUERQUE","State":"Retail -Grocery","Billing_Status":"","Description":""}},{"type":"Feature","geometry":{"type":"Point","coordinates":[-106.586385,35.075521]},"properties":{"Name":"OOB WAL MART #0831","Nature_of_Business":"RESTAURANT","Address":"301 SAN MATEO BLVD SE","City":"ALBUQUERQUE","State":"Retail -Grocery","Billing_Status":"","Description":""}},{"type":"Feature","geometry":{"type":"Point","coordinates":[-106.642825,35.111546]},"properties":{"Name":"OOB WD GENERAL STORE","Nature_of_Business":" ","Address":"2701 1ST ST NW","City":"ALBUQUERQUE","State":"Retail -Grocery","Billing_Status":"","Description":""}},{"type":"Feature","geometry":{"type":"Point","coordinates":[-106.602434,35.154163]},"properties":{"Name":"OOB WONDER BREAD HOSTESS THRIFT STORE","Nature_of_Business":"RETAIL SALES","Address":"3700 OSUNA RD NE STE 507","City":"ALBUQUERQUE","State":"Retail -Grocery","Billing_Status":"","Description":""}},{"type":"Feature","geometry":{"type":"Point","coordinates":[-106.615532,35.109309]},"properties":{"Name":"OOB- WONDER HOSTESS THRIFTSTORE","Nature_of_Business":"RETAIL SALES","Address":"2445 MENAUL BLVD NE","City":"ALBUQUERQUE","State":"Retail -Grocery","Billing_Status":"","Description":""}},{"type":"Feature","geometry":{"type":"Point","coordinates":[-106.658959,35.095434]},"properties":{"Name":"OOB-05/28/03 SUNSHINE GROCERY","Nature_of_Business":"GROCERY","Address":"912 12TH ST NW","City":"ALBUQUERQUE","State":"Retail -Grocery","Billing_Status":"","Description":""}},{"type":"Feature","geometry":{"type":"Point","coordinates":[-106.574832,35.072703]},"properties":{"Name":"OOB-06/18/03 FARMERS MARKET","Nature_of_Business":"GROCERY","Address":"6500 ZUNI RD SE","City":"ALBUQUERQUE","State":"Retail -Grocery","Billing_Status":"","Description":""}},{"type":"Feature","geometry":{"type":"Point","coordinates":[-106.565414,35.075434]},"properties":{"Name":"OOB-06/19/03 ALBUQUERQUE PRODUCE","Nature_of_Business":"RETAIL FRUITS/VEGETAB","Address":"7226 CENTRAL AV SE","City":"ALBUQUERQUE","State":"Retail -Grocery","Billing_Status":"","Description":""}},{"type":"Feature","geometry":{"type":"Point","coordinates":[-106.681892,35.064953]},"properties":{"Name":"OOB-06/25/03 GAS FOR LESS","Nature_of_Business":"GAS STATION","Address":"1700 BRIDGE BLVD SW","City":"ALBUQUERQUE","State":"Retail -Grocery","Billing_Status":"","Description":""}},{"type":"Feature","geometry":{"type":"Point","coordinates":[-106.515805,35.116079]},"properties":{"Name":"OOB-06/30/03 OUEIS CONOCO","Nature_of_Business":"GAS STATIONS","Address":"2925 JUAN TABO BLVD NE","City":"ALBUQUERQUE","State":"Retail -Grocery","Billing_Status":"","Description":""}},{"type":"Feature","geometry":{"type":"Point","coordinates":[-106.514935,35.087548]},"properties":{"Name":"OOB-07/18/03COOL CLEAR WATER","Nature_of_Business":"RETAIL","Address":"918 JUAN TABO BLVD NE","City":"ALBUQUERQUE","State":"Retail -Grocery","Billing_Status":"","Description":""}},{"type":"Feature","geometry":{"type":"Point","coordinates":[-106.583041,35.072848]},"properties":{"Name":"OOB-07/22/03 EVERYTHING 99","Nature_of_Business":"GROCERY","Address":"5555 ZUNI RD SE","City":"ALBUQUERQUE","State":"Retail -Grocery","Billing_Status":"","Description":""}},{"type":"Feature","geometry":{"type":"Point","coordinates":[-106.586572,35.131355]},"properties":{"Name":"OOB-09/2003 NUTRITION WAREHOUSE","Nature_of_Business":"GROCERY","Address":"4411 SAN MATEO BLVD NE","City":"ALBUQUERQUE","State":"Retail -Grocery","Billing_Status":"","Description":""}},{"type":"Feature","geometry":{"type":"Point","coordinates":[-106.529883,35.085512]},"properties":{"Name":"OOB-ALEX'S CHEVRON","Nature_of_Business":"GAS STATION","Address":"1 HOTEL CIRCLE NE","City":"ALBUQUERQUE","State":"Retail -Grocery","Billing_Status":"","Description":""}},{"type":"Feature","geometry":{"type":"Point","coordinates":[-106.586565,35.14506]},"properties":{"Name":"OOB-ALL THE AMERICAS","Nature_of_Business":"GROCERY","Address":"6001 SAN MATEO BLVD NE","City":"ALBUQUERQUE","State":"Retail -Grocery","Billing_Status":"","Description":""}},{"type":"Feature","geometry":{"type":"Point","coordinates":[-106.648724,35.099766]},"properties":{"Name":"OOB-ALLSUPS #135","Nature_of_Business":"GROCERY","Address":"1527 4TH ST NW","City":"ALBUQUERQUE","State":"Retail -Grocery","Billing_Status":"","Description":""}},{"type":"Feature","geometry":{"type":"Point","coordinates":[-106.650619,35.089525]},"properties":{"Name":"OOB-ALOHAMART","Nature_of_Business":"CONVENIENCE STORE","Address":"500 4TH ST NW","City":"ALBUQUERQUE","State":"Retail -Grocery","Billing_Status":"","Description":""}},{"type":"Feature","geometry":{"type":"Point","coordinates":[-106.568788,35.116939]},"properties":{"Name":"OOB-AMIGO MART #34","Nature_of_Business":"WHOLESALE PETROLEUM PRODU","Address":"3002 LOUISIANA BLVD NE","City":"ALBUQUERQUE","State":"Retail -Grocery","Billing_Status":"","Description":""}},{"type":"Feature","geometry":{"type":"Point","coordinates":[-106.636299,35.079588]},"properties":{"Name":"OOB-AMIGO MART #35","Nature_of_Business":"WHOLESALE PETROLEUM PRODU","Address":"1001 LEAD AV SE","City":"ALBUQUERQUE","State":"Retail -Grocery","Billing_Status":"","Description":""}},{"type":"Feature","geometry":{"type":"Point","coordinates":[-106.580582,35.058408]},"properties":{"Name":"OOB-AMIGO MART #36","Nature_of_Business":"WHOLESALE PETROLEUM PRODU","Address":"5501 GIBSON BLVD SE","City":"ALBUQUERQUE","State":"Retail -Grocery","Billing_Status":"","Description":""}},{"type":"Feature","geometry":{"type":"Point","coordinates":[-106.688035,35.150415]},"properties":{"Name":"OOB-AMIGO MART #37","Nature_of_Business":"WHOLESALE PETROLEUM PRODU","Address":"4300 MONTANO RD NW","City":"ALBUQUERQUE","State":"Retail -Grocery","Billing_Status":"","Description":""}},{"type":"Feature","geometry":{"type":"Point","coordinates":[-106.705822,35.103046]},"properties":{"Name":"OOB-AMIGO MART #840","Nature_of_Business":"WHOLESALE PETROLEUM PRODU","Address":"1524 COORS BLVD NW","City":"ALBUQUERQUE","State":"Retail -Grocery","Billing_Status":"","Description":""}},{"type":"Feature","geometry":{"type":"Point","coordinates":[-106.670688,35.103092]},"properties":{"Name":"OOB-AMIGO MART #841","Nature_of_Business":"WHOLESALE PETROLEUM PRODU","Address":"924 RIO GRANDE BLVD NW","City":"ALBUQUERQUE","State":"Retail -Grocery","Billing_Status":"","Description":""}},{"type":"Feature","geometry":{"type":"Point","coordinates":[-106.607745,35.131385]},"properties":{"Name":"OOB-AMIGO MART #842","Nature_of_Business":"WHOLESALE PETROLEUM PRODU","Address":"3200 MONTGOMERY BLVD NE","City":"ALBUQUERQUE","State":"Retail -Grocery","Billing_Status":"","Description":""}},{"type":"Feature","geometry":{"type":"Point","coordinates":[-106.569081,35.087368]},"properties":{"Name":"OOB-AMIGO MART #845","Nature_of_Business":"WHOLESALE PETROLEUM PRODU","Address":"7011 LOMAS BLVD NE","City":"ALBUQUERQUE","State":"Retail -Grocery","Billing_Status":"","Description":""}},{"type":"Feature","geometry":{"type":"Point","coordinates":[-106.532715,35.087659]},"properties":{"Name":"OOB-AMIGO MART #847","Nature_of_Business":"WHOLESALE PETROLEUM PRODU","Address":"901 EUBANK BLVD NE","City":"ALBUQUERQUE","State":"Retail -Grocery","Billing_Status":"","Description":""}},{"type":"Feature","geometry":{"type":"Point","coordinates":[-106.550819,35.130809]},"properties":{"Name":"OOB-AMIGO MART #848","Nature_of_Business":"WHOLESALE PETROLEUM PRODU","Address":"8401 MONTGOMERY BLVD NE","City":"ALBUQUERQUE","State":"Retail -Grocery","Billing_Status":"","Description":""}},{"type":"Feature","geometry":{"type":"Point","coordinates":[-106.515048,35.079002]},"properties":{"Name":"OOB-B RILEY FRESH HERBS","Nature_of_Business":"DISTRIBUTE FRESH PRODUCE","Address":"670 JUAN TABO NE A","City":"ALBUQUERQUE","State":"Retail -Grocery","Billing_Status":"","Description":""}},{"type":"Feature","geometry":{"type":"Point","coordinates":[-106.515048,35.079002]},"properties":{"Name":"OOB-B RILEY FRESH HERBS INC","Nature_of_Business":"GROCERY","Address":"670 JUAN TABO BLVD NE","City":"ALBUQUERQUE","State":"Retail -Grocery","Billing_Status":"","Description":""}},{"type":"Feature","geometry":{"type":"Point","coordinates":[-106.686096,35.085324]},"properties":{"Name":"OOB-BIG LOTS","Nature_of_Business":"RETAIL SALES VARIETY","Address":"4208 CENTRAL AV SW","City":"ALBUQUERQUE","State":"Retail -Grocery","Billing_Status":"","Description":""}},{"type":"Feature","geometry":{"type":"Point","coordinates":[-106.588831,35.131079]},"properties":{"Name":"OOB-BMS FITNESS & NUTRITION","Nature_of_Business":"RETAIL SUPPLEMENT DRINKS","Address":"5001 MONTGOMERY BLVD NE","City":"ALBUQUERQUE","State":"Retail -Grocery","Billing_Status":"","Description":""}},{"type":"Feature","geometry":{"type":"Point","coordinates":[-106.613065,35.09851]},"properties":{"Name":"OOB-BROOKS GROCERY EMPORIUM_#287","Nature_of_Business":"GROCERY","Address":"1403 GIRARD BLVD NE","City":"ALBUQUERQUE","State":"Retail -Grocery","Billing_Status":"","Description":""}},{"type":"Feature","geometry":{"type":"Point","coordinates":[-106.559635,35.109074]},"properties":{"Name":"OOB-CANDY BOUQUET","Nature_of_Business":"CANDY","Address":"7610 MENAUL BLVD NE","City":"ALBUQUERQUE","State":"Retail -Grocery","Billing_Status":"","Description":""}},{"type":"Feature","geometry":{"type":"Point","coordinates":[-106.550715,35.073844]},"properties":{"Name":"OOB-CENTRAL 66","Nature_of_Business":"GAS STATION","Address":"8614 CENTRAL AV SE","City":"ALBUQUERQUE","State":"Retail -Grocery","Billing_Status":"","Description":""}},{"type":"Feature","geometry":{"type":"Point","coordinates":[-106.577535,35.065192]},"properties":{"Name":"OOB-CENTRAL SUPERMARKET","Nature_of_Business":"GROCERY","Address":"913 SAN PEDRO DR SE","City":"ALBUQUERQUE","State":"Retail -Grocery","Billing_Status":"","Description":""}},{"type":"Feature","geometry":{"type":"Point","coordinates":[-106.577417,35.109207]},"properties":{"Name":"OOB-CHILE ADDICT/FREEDOM FIREWORKS","Nature_of_Business":"RAW PRODUCE","Address":"6001 MENAUL BLVD NE","City":"ALBUQUERQUE","State":"Retail -Grocery","Billing_Status":"","Description":""}},{"type":"Feature","geometry":{"type":"Point","coordinates":[-106.669448,35.095661]},"properties":{"Name":"OOB-CHILI PATCH USA","Nature_of_Business":"RETAIL","Address":"204 SAN FELIPE ST NW","City":"ALBUQUERQUE","State":"Retail -Grocery","Billing_Status":"","Description":""}},{"type":"Feature","geometry":{"type":"Point","coordinates":[-106.568608,35.098825]},"properties":{"Name":"OOB-CHILI PEPPER EMPORIUM","Nature_of_Business":"RETAIL","Address":"2100 LOUISIANA BLVD NE","City":"ALBUQUERQUE","State":"Retail -Grocery","Billing_Status":"","Description":""}},{"type":"Feature","geometry":{"type":"Point","coordinates":[-106.670745,35.102849]},"properties":{"Name":"OOB-CHILI PEPPER EMPORIUM","Nature_of_Business":"RETAIL","Address":"901 RIO GRANDE BLVD NW STE A194","City":"ALBUQUERQUE","State":"Retail -Grocery","Billing_Status":"","Description":""}},{"type":"Feature","geometry":{"type":"Point","coordinates":[-106.506218,35.07953]},"properties":{"Name":"OOB-CIRCLE K 672","Nature_of_Business":"GROCERY","Address":"600 CHELWOOD PARK BLVD NE","City":"ALBUQUERQUE","State":"Retail -Grocery","Billing_Status":"","Description":""}},{"type":"Feature","geometry":{"type":"Point","coordinates":[-106.650619,35.089525]},"properties":{"Name":"OOB-COMMERCE NEWS & GIFTS","Nature_of_Business":"RETAILER","Address":"500 4TH ST NW","City":"ALBUQUERQUE","State":"Retail -Grocery","Billing_Status":"","Description":""}},{"type":"Feature","geometry":{"type":"Point","coordinates":[-106.701528,35.1232]},"properties":{"Name":"OOB-COORS 66 #28011","Nature_of_Business":"RETAIL","Address":"3630 COORS BLVD NW","City":"ALBUQUERQUE","State":"Retail -Grocery","Billing_Status":"","Description":""}},{"type":"Feature","geometry":{"type":"Point","coordinates":[-106.709292,35.094688]},"properties":{"Name":"OOB-COORS 66 GAS STOP","Nature_of_Business":"GAS STATION","Address":"700 COORS BLVD NW","City":"ALBUQUERQUE","State":"Retail -Grocery","Billing_Status":"","Description":""}},{"type":"Feature","geometry":{"type":"Point","coordinates":[-106.57293,35.103808]},"properties":{"Name":"OOB-CORONADO SIX","Nature_of_Business":"MOVIE THEATRE","Address":"6401 UPTOWN BLVD NE","City":"ALBUQUERQUE","State":"Retail -Grocery","Billing_Status":"","Description":""}},{"type":"Feature","geometry":{"type":"Point","coordinates":[-106.587622,35.087383]},"properties":{"Name":"OOB-CVS PHARMACY #9265","Nature_of_Business":"RETAIL PHARMACY","Address":"5112 LOMAS BLVD NE","City":"ALBUQUERQUE","State":"Retail -Grocery","Billing_Status":"","Description":""}},{"type":"Feature","geometry":{"type":"Point","coordinates":[-106.586385,35.0939]},"properties":{"Name":"OOB-DIAMOND SHAMROCK","Nature_of_Business":"GAS STATION","Address":"1705 SAN MATEO BLVD NE","City":"ALBUQUERQUE","State":"Retail -Grocery","Billing_Status":"","Description":""}},{"type":"Feature","geometry":{"type":"Point","coordinates":[-106.586385,35.0939]},"properties":{"Name":"OOB-DIAMOND SHAMROCK #1222","Nature_of_Business":"GROCERY","Address":"1705 SAN MATEO BLVD NE","City":"ALBUQUERQUE","State":"Retail -Grocery","Billing_Status":"","Description":""}},{"type":"Feature","geometry":{"type":"Point","coordinates":[-106.675105,35.095568]},"properties":{"Name":"OOB-DIAMOND SHAMROCK #1233","Nature_of_Business":"GROCERY","Address":"2309 CENTRAL AV NW","City":"ALBUQUERQUE","State":"Retail -Grocery","Billing_Status":"","Description":""}},{"type":"Feature","geometry":{"type":"Point","coordinates":[-106.669674,35.178381]},"properties":{"Name":"OOB-DIAMOND SHAMROCK METRO TWO","Nature_of_Business":"GAS RETAIL","Address":"9160 COORS RD NW","City":"ALBUQUERQUE","State":"Retail -Grocery","Billing_Status":"","Description":""}},{"type":"Feature","geometry":{"type":"Point","coordinates":[-106.565511,35.130633]},"properties":{"Name":"OOB-DOLLAR BARGAIN","Nature_of_Business":"RETAIL GEN. MERCHANDISE","Address":"7200 MONTGOMERY BLVD NE","City":"ALBUQUERQUE","State":"Retail -Grocery","Billing_Status":"","Description":""}},{"type":"Feature","geometry":{"type":"Point","coordinates":[-106.550693,35.10539]},"properties":{"Name":"OOB-DOLLAR TREE #2661","Nature_of_Business":"RETAIL  SALES","Address":"2266 WYOMING BLVD NE STE","City":"ALBUQUERQUE","State":"Retail -Grocery","Billing_Status":"","Description":""}},{"type":"Feature","geometry":{"type":"Point","coordinates":[-106.690158,35.084607]},"properties":{"Name":"OOB-DUKE CITY FUELING","Nature_of_Business":"RETAIL","Address":"4617 CENTRAL AV NW","City":"ALBUQUERQUE","State":"Retail -Grocery","Billing_Status":"","Description":""}},{"type":"Feature","geometry":{"type":"Point","coordinates":[-106.659819,35.202785]},"properties":{"Name":"OOB-DUKE CITY FUELING","Nature_of_Business":"CONVENIENCE STORE","Address":"3630 COORS ST NW","City":"ALBUQUERQUE","State":"Retail -Grocery","Billing_Status":"","Description":""}},{"type":"Feature","geometry":{"type":"Point","coordinates":[-106.744733,35.04911]},"properties":{"Name":"OOB-DULCELANDIA PNM","Nature_of_Business":"CANDY SALES","Address":"1304 MIMBRES ST SW","City":"ALBUQUERQUE","State":"Retail -Grocery","Billing_Status":"","Description":""}},{"type":"Feature","geometry":{"type":"Point","coordinates":[-106.709401,35.094427]},"properties":{"Name":"OOB-ECONOMY FOOD & GAS MART","Nature_of_Business":"GROCERY","Address":"700 COORS BLVD NW","City":"ALBUQUERQUE","State":"Retail -Grocery","Billing_Status":"","Description":""}},{"type":"Feature","geometry":{"type":"Point","coordinates":[-106.646654,35.110646]},"properties":{"Name":"OOB-ECONOMY GAS & FOOD MART","Nature_of_Business":"GAS STATION RETAIL","Address":"2523 4TH ST NW","City":"ALBUQUERQUE","State":"Retail -Grocery","Billing_Status":"","Description":""}},{"type":"Feature","geometry":{"type":"Point","coordinates":[-106.583041,35.072848]},"properties":{"Name":"OOB-FACTORY 2-U #351","Nature_of_Business":"CLOTHING","Address":"5555 ZUNI RD SE","City":"ALBUQUERQUE","State":"Retail -Grocery","Billing_Status":"","Description":""}},{"type":"Feature","geometry":{"type":"Point","coordinates":[-106.683023,35.065063]},"properties":{"Name":"OOB-FAMILIA MEXICANA","Nature_of_Business":"GROCERY","Address":"1720 BRIDGE BLVD SW","City":"ALBUQUERQUE","State":"Retail -Grocery","Billing_Status":"","Description":""}},{"type":"Feature","geometry":{"type":"Point","coordinates":[-106.574832,35.072703]},"properties":{"Name":"OOB-FARMERS BASKET","Nature_of_Business":"RETAIL PRODUCE","Address":"6500 ZUNI SE","City":"ALBUQUERQUE","State":"Retail -Grocery","Billing_Status":"","Description":""}},{"type":"Feature","geometry":{"type":"Point","coordinates":[-106.618335,35.077131]},"properties":{"Name":"OOB-FARMERS BASKET","Nature_of_Business":"RETAIL PRODUCE","Address":"301 STANFORD SE","City":"ALBUQUERQUE","State":"Retail -Grocery","Billing_Status":"","Description":""}},{"type":"Feature","geometry":{"type":"Point","coordinates":[-106.618335,35.077131]},"properties":{"Name":"OOB-FARMERS MARKET","Nature_of_Business":"GROCERY","Address":"301 STANFORD DR SE","City":"ALBUQUERQUE","State":"Retail -Grocery","Billing_Status":"","Description":""}},{"type":"Feature","geometry":{"type":"Point","coordinates":[-106.697072,35.082869]},"properties":{"Name":"OOB-FARMERS MARKET","Nature_of_Business":"GROCERY","Address":"5312 CENTRAL AV SW","City":"ALBUQUERQUE","State":"Retail -Grocery","Billing_Status":"","Description":""}},{"type":"Feature","geometry":{"type":"Point","coordinates":[-106.578638,35.106373]},"properties":{"Name":"OOB-FARR SWEETER LLC","Nature_of_Business":"RETAIL CANDY STORE","Address":"303 ROMERO NW","City":"ALBUQUERQUE","State":"Retail -Grocery","Billing_Status":"","Description":""}},{"type":"Feature","geometry":{"type":"Point","coordinates":[-106.515158,35.066391]},"properties":{"Name":"OOB-FOUR HILLS MINIMART","Nature_of_Business":"CONVENIENCE STORE","Address":"504 JUAN TABO SE","City":"ALBUQUERQUE","State":"Retail -Grocery","Billing_Status":"","Description":""}},{"type":"Feature","geometry":{"type":"Point","coordinates":[-106.502191,35.086538]},"properties":{"Name":"OOB-GAS EXPRESS","Nature_of_Business":"CONVENIENCE STORE","Address":"13025 LOMAS BLVD NE","City":"ALBUQUERQUE","State":"Retail -Grocery","Billing_Status":"","Description":""}},{"type":"Feature","geometry":{"type":"Point","coordinates":[-106.502191,35.086538]},"properties":{"Name":"OOB-GAS EXPRESS","Nature_of_Business":"GAS STATION","Address":"13025 LOMAS BLVD NE","City":"ALBUQUERQUE","State":"Retail -Grocery","Billing_Status":"","Description":""}},{"type":"Feature","geometry":{"type":"Point","coordinates":[-106.502191,35.086538]},"properties":{"Name":"OOB-GAS EXPRESS","Nature_of_Business":"GROCERY STORE","Address":"13025 LOMAS BLVD NE","City":"ALBUQUERQUE","State":"Retail -Grocery","Billing_Status":"","Description":""}},{"type":"Feature","geometry":{"type":"Point","coordinates":[-106.515794,35.115895]},"properties":{"Name":"OOB-GASCO","Nature_of_Business":"GAS/CONVENIENCE STORE","Address":"2925 JUAN TABO BLVD NE","City":"ALBUQUERQUE","State":"Retail -Grocery","Billing_Status":"","Description":""}},{"type":"Feature","geometry":{"type":"Point","coordinates":[-106.496351,35.130728]},"properties":{"Name":"OOB-GNC STORE #6902","Nature_of_Business":"RETAIL VITAMINS","Address":"12611 MONTGOMERY BLVD NE","City":"ALBUQUERQUE","State":"Retail -Grocery","Billing_Status":"","Description":""}},{"type":"Feature","geometry":{"type":"Point","coordinates":[-106.586385,35.09333]},"properties":{"Name":"OOB-GNC/HEALTH HAVEN","Nature_of_Business":"GROCERY","Address":"1619 SAN MATEO BLVD NE","City":"ALBUQUERQUE","State":"Retail -Grocery","Billing_Status":"","Description":""}},{"type":"Feature","geometry":{"type":"Point","coordinates":[-106.563639,35.101688]},"properties":{"Name":"OOB-GODIVA CHOCOLATIER INC","Nature_of_Business":"PROCESSOR","Address":"36 WINROCK CENTER NE","City":"ALBUQUERQUE","State":"Retail -Grocery","Billing_Status":"","Description":""}},{"type":"Feature","geometry":{"type":"Point","coordinates":[-106.653668,35.084848]},"properties":{"Name":"OOB-GORILLA TANGO COMEDY THEATRE","Nature_of_Business":"COMEDY THEATRE","Address":"519 CENTRAL AV NW","City":"ALBUQUERQUE","State":"Retail -Grocery","Billing_Status":"","Description":""}},{"type":"Feature","geometry":{"type":"Point","coordinates":[-106.610725,35.08015]},"properties":{"Name":"OOB-GOURMET TO GO","Nature_of_Business":"RESTAURANT","Address":"124 RICHMOND DR SE","City":"ALBUQUERQUE","State":"Retail -Grocery","Billing_Status":"","Description":""}},{"type":"Feature","geometry":{"type":"Point","coordinates":[-106.658842,35.196123]},"properties":{"Name":"OOB-GREAT AMERICAN COOKIE CO.","Nature_of_Business":"RETAIL","Address":"10000 COORS BYPASS BLVD NW","City":"ALBUQUERQUE","State":"Retail -Grocery","Billing_Status":"","Description":""}},{"type":"Feature","geometry":{"type":"Point","coordinates":[-106.680047,35.156414]},"properties":{"Name":"OOB-GREAT HARVEST BREAD","Nature_of_Business":"BAKEREY","Address":"6301 RIVERSIDE PLAZA LN NW","City":"ALBUQUERQUE","State":"Retail -Grocery","Billing_Status":"","Description":""}},{"type":"Feature","geometry":{"type":"Point","coordinates":[-106.578761,35.087458]},"properties":{"Name":"OOB-GREENBACKS  INC #53","Nature_of_Business":"RETAIL  SALES","Address":"6001 LOMAS BLVD NE","City":"ALBUQUERQUE","State":"Retail -Grocery","Billing_Status":"","Description":""}},{"type":"Feature","geometry":{"type":"Point","coordinates":[-106.613065,35.09851]},"properties":{"Name":"OOB-GROCERY EMPORIUM LLC","Nature_of_Business":"GROCERY SALES","Address":"1403 GIRARD BLVD NE","City":"ALBUQUERQUE","State":"Retail -Grocery","Billing_Status":"","Description":""}},{"type":"Feature","geometry":{"type":"Point","coordinates":[-106.536679,35.072438]},"properties":{"Name":"OOB-GYPSY LIQUORS & CONV STR","Nature_of_Business":"GROCERY","Address":"10001 CENTRAL AV NE","City":"ALBUQUERQUE","State":"Retail -Grocery","Billing_Status":"","Description":""}},{"type":"Feature","geometry":{"type":"Point","coordinates":[-106.612978,35.1004]},"properties":{"Name":"OOB-HAROLDS LAUNDRY INC","Nature_of_Business":"LAUNDRY MINI MART","Address":"1500 GIRARD BLVD NE","City":"ALBUQUERQUE","State":"Retail -Grocery","Billing_Status":"","Description":""}},{"type":"Feature","geometry":{"type":"Point","coordinates":[-106.651264,35.088214]},"properties":{"Name":"OOB-HECTORS SNACK BAR","Nature_of_Business":"SNACK BAR","Address":"400 MARQUETTE AV NW","City":"ALBUQUERQUE","State":"Retail -Grocery","Billing_Status":"","Description":""}},{"type":"Feature","geometry":{"type":"Point","coordinates":[-106.646694,35.110416]},"properties":{"Name":"OOB-HI LO MARKET","Nature_of_Business":"GROCERY","Address":"2513 4TH ST NW","City":"ALBUQUERQUE","State":"Retail -Grocery","Billing_Status":"","Description":""}},{"type":"Feature","geometry":{"type":"Point","coordinates":[-106.550898,35.129901]},"properties":{"Name":"OOB-INDIA PALACE GIFT SHOP","Nature_of_Business":"GIFT SHOP","Address":"4410 WYOMING BLVD NE","City":"ALBUQUERQUE","State":"Retail -Grocery","Billing_Status":"","Description":""}},{"type":"Feature","geometry":{"type":"Point","coordinates":[-106.64831,35.084192]},"properties":{"Name":"OOB-ISABELLAS","Nature_of_Business":"BAKERY","Address":"40 FIRST PLAZA NW 244","City":"ALBUQUERQUE","State":"Retail -Grocery","Billing_Status":"","Description":""}},{"type":"Feature","geometry":{"type":"Point","coordinates":[-106.653128,35.076154]},"properties":{"Name":"OOB-J & C DISCOUNT PRODUCE","Nature_of_Business":"PRODUCE","Address":"916 4TH ST SW","City":"ALBUQUERQUE","State":"Retail -Grocery","Billing_Status":"","Description":""}},{"type":"Feature","geometry":{"type":"Point","coordinates":[-106.550697,35.106287]},"properties":{"Name":"OOB-JOHN BROOKS SUPERMART #825","Nature_of_Business":"GROCERY","Address":"2280 WYOMING BLVD NE","City":"ALBUQUERQUE","State":"Retail -Grocery","Billing_Status":"","Description":""}},{"type":"Feature","geometry":{"type":"Point","coordinates":[-106.524354,35.107965]},"properties":{"Name":"OOB-KEES ORIENTAL MARKET","Nature_of_Business":"GROCERY STORE","Address":"2306 MORRIS ST NE","City":"ALBUQUERQUE","State":"Retail -Grocery","Billing_Status":"","Description":""}},{"type":"Feature","geometry":{"type":"Point","coordinates":[-106.645599,35.067497]},"properties":{"Name":"OOB-LA ESPERANZA","Nature_of_Business":"MINIMART","Address":"1605 BROADWAY BLVD SE","City":"ALBUQUERQUE","State":"Retail -Grocery","Billing_Status":"","Description":""}},{"type":"Feature","geometry":{"type":"Point","coordinates":[-106.645599,35.067497]},"properties":{"Name":"OOB-LA ESPERANZA MINI MART","Nature_of_Business":"GROCERY","Address":"1605 BROADWAY BLVD SE","City":"ALBUQUERQUE","State":"Retail -Grocery","Billing_Status":"","Description":""}},{"type":"Feature","geometry":{"type":"Point","coordinates":[-106.645599,35.067497]},"properties":{"Name":"OOB-LA ESPERANZA MINI MART","Nature_of_Business":"GROCERY","Address":"1605 BROADWAY BLVD SE","City":"ALBUQUERQUE","State":"Retail -Grocery","Billing_Status":"","Description":""}},{"type":"Feature","geometry":{"type":"Point","coordinates":[-106.650619,35.089525]},"properties":{"Name":"OOB-LITTLE STORE AND MORE","Nature_of_Business":"CONVENIENCE STORE","Address":"500 4TH ST NW STE 107","City":"ALBUQUERQUE","State":"Retail -Grocery","Billing_Status":"","Description":""}},{"type":"Feature","geometry":{"type":"Point","coordinates":[-106.515175,35.086352]},"properties":{"Name":"OOB-MANZANO CHEVRON  LLC","Nature_of_Business":"GROCERY","Address":"845 JUAN TABO BLVD NE","City":"ALBUQUERQUE","State":"Retail -Grocery","Billing_Status":"","Description":""}},{"type":"Feature","geometry":{"type":"Point","coordinates":[-106.65877,35.10781]},"properties":{"Name":"OOB-MARIE'S EXPRESSO AND MORE","Nature_of_Business":"EXPRESSO AND MORE","Address":"2035 12TH ST NW","City":"ALBUQUERQUE","State":"Retail -Grocery","Billing_Status":"","Description":""}},{"type":"Feature","geometry":{"type":"Point","coordinates":[-106.613065,35.09851]},"properties":{"Name":"OOB-MARKET @ GIRARD INC THE","Nature_of_Business":"GROCERY STORE","Address":"1403 GIRARD BLVD NE","City":"ALBUQUERQUE","State":"Retail -Grocery","Billing_Status":"","Description":""}},{"type":"Feature","geometry":{"type":"Point","coordinates":[-106.644764,35.120427]},"properties":{"Name":"OOB-MEDICINE CHEST #2","Nature_of_Business":"GROCERY","Address":"3701 4TH ST NW","City":"ALBUQUERQUE","State":"Retail -Grocery","Billing_Status":"","Description":""}},{"type":"Feature","geometry":{"type":"Point","coordinates":[-106.577525,35.075719]},"properties":{"Name":"OOB-MERCARDO Y CARNICERIA","Nature_of_Business":"MEAT MKT","Address":"201 SAN PEDRO DR SE","City":"ALBUQUERQUE","State":"Retail -Grocery","Billing_Status":"","Description":""}},{"type":"Feature","geometry":{"type":"Point","coordinates":[-106.588273,35.109288]},"properties":{"Name":"OOB-MIDDLE EAST BAKERY","Nature_of_Business":"BAKERY","Address":"5017 MENAUL NE","City":"ALBUQUERQUE","State":"Retail -Grocery","Billing_Status":"","Description":""}},{"type":"Feature","geometry":{"type":"Point","coordinates":[-106.683432,35.08683]},"properties":{"Name":"OOB-NEW MEXICO BEEF JERKY","Nature_of_Business":"PROCESSOR","Address":"3913 CENTRAL AV NW","City":"ALBUQUERQUE","State":"Retail -Grocery","Billing_Status":"","Description":""}},{"type":"Feature","geometry":{"type":"Point","coordinates":[-106.670952,35.095864]},"properties":{"Name":"OOB-NEW MEXICO TABLE","Nature_of_Business":"RETAIL FOOD","Address":"2044 S PLAZA RD NW","City":"ALBUQUERQUE","State":"Retail -Grocery","Billing_Status":"","Description":""}},{"type":"Feature","geometry":{"type":"Point","coordinates":[-106.717769,35.193125]},"properties":{"Name":"OOB-PARADISE HILLS LITTLE LEAGUE","Nature_of_Business":" ","Address":"9801 LA PAZ NW","City":"ALBUQUERQUE","State":"Retail -Grocery","Billing_Status":"","Description":""}},{"type":"Feature","geometry":{"type":"Point","coordinates":[-106.64195,35.116821]},"properties":{"Name":"OOB-PASTIANS BAKERY","Nature_of_Business":"RETAIL SALES","Address":"3320 2ND ST NW","City":"ALBUQUERQUE","State":"Retail -Grocery","Billing_Status":"","Description":""}},{"type":"Feature","geometry":{"type":"Point","coordinates":[-106.669806,35.178207]},"properties":{"Name":"OOB-PHILLIPS 66","Nature_of_Business":"GAS STATION/CONVENIEN","Address":"9160 COORS BLVD NW","City":"ALBUQUERQUE","State":"Retail -Grocery","Billing_Status":"","Description":""}},{"type":"Feature","geometry":{"type":"Point","coordinates":[-106.613065,35.09851]},"properties":{"Name":"OOB-QUALITY PRODUCE MARKET","Nature_of_Business":"RETAIL SALES/ PRODUCE","Address":"1403 GIRARD BLVD NE","City":"ALBUQUERQUE","State":"Retail -Grocery","Billing_Status":"","Description":""}},{"type":"Feature","geometry":{"type":"Point","coordinates":[-106.550715,35.073844]},"properties":{"Name":"OOB-R & M PHILLIPS 66","Nature_of_Business":"RETAIL","Address":"8614 CENTRAL AV SE","City":"ALBUQUERQUE","State":"Retail -Grocery","Billing_Status":"","Description":""}},{"type":"Feature","geometry":{"type":"Point","coordinates":[-106.515418,35.10793]},"properties":{"Name":"OOB-RALEY'S #803","Nature_of_Business":"GROC/BKRY/REST","Address":"2200 JUAN TABO BLVD NE","City":"ALBUQUERQUE","State":"Retail -Grocery","Billing_Status":"","Description":""}},{"type":"Feature","geometry":{"type":"Point","coordinates":[-106.551133,35.130068]},"properties":{"Name":"OOB-RALEY'S #804","Nature_of_Business":"GROC/BKRY/REST","Address":"4401 WYOMING BLVD NE","City":"ALBUQUERQUE","State":"Retail -Grocery","Billing_Status":"","Description":""}},{"type":"Feature","geometry":{"type":"Point","coordinates":[-106.683836,35.152364]},"properties":{"Name":"OOB-RALEY'S #805","Nature_of_Business":"GROC/BKRY/REST","Address":"6200 COORS BLVD NW","City":"ALBUQUERQUE","State":"Retail -Grocery","Billing_Status":"","Description":""}},{"type":"Feature","geometry":{"type":"Point","coordinates":[-106.499155,35.068314]},"properties":{"Name":"OOB-RALEY'S #807","Nature_of_Business":"GROC/BKRY/REST","Address":"13150 CENTRAL AV SE","City":"ALBUQUERQUE","State":"Retail -Grocery","Billing_Status":"","Description":""}},{"type":"Feature","geometry":{"type":"Point","coordinates":[-106.583041,35.072848]},"properties":{"Name":"OOB-RALEY'S #808","Nature_of_Business":"GROC/BKRY/REST","Address":"5555 ZUNI RD SE","City":"ALBUQUERQUE","State":"Retail -Grocery","Billing_Status":"","Description":""}},{"type":"Feature","geometry":{"type":"Point","coordinates":[-106.499931,35.086468]},"properties":{"Name":"OOB-RALEY'S #809","Nature_of_Business":"GROC/BKRY/REST","Address":"13201 LOMAS BLVD NE","City":"ALBUQUERQUE","State":"Retail -Grocery","Billing_Status":"","Description":""}},{"type":"Feature","geometry":{"type":"Point","coordinates":[-106.515538,35.114801]},"properties":{"Name":"OOB-RALEY'S #813","Nature_of_Business":"GROC/BKRY/REST","Address":"2910 JUAN TABO BLVD NE","City":"ALBUQUERQUE","State":"Retail -Grocery","Billing_Status":"","Description":""}},{"type":"Feature","geometry":{"type":"Point","coordinates":[-106.542155,35.174603]},"properties":{"Name":"OOB-RALEY'S #814","Nature_of_Business":"GROC/BKRY/REST","Address":"8100 VENTURA ST NE","City":"ALBUQUERQUE","State":"Retail -Grocery","Billing_Status":"","Description":""}},{"type":"Feature","geometry":{"type":"Point","coordinates":[-106.581778,35.07652]},"properties":{"Name":"OOB-RANCHERO MEAT MARKET","Nature_of_Business":" ","Address":"110 ALVARADO DR SE","City":"ALBUQUERQUE","State":"Retail -Grocery","Billing_Status":"","Description":""}},{"type":"Feature","geometry":{"type":"Point","coordinates":[-106.718333,35.192695]},"properties":{"Name":"OOB-RAPTOR BASKETBALL JMMS","Nature_of_Business":"BASKETBALL SNACK BAR","Address":"6100 PARADISE NW","City":"ALBUQUERQUE","State":"Retail -Grocery","Billing_Status":"","Description":""}},{"type":"Feature","geometry":{"type":"Point","coordinates":[-106.577698,35.129883]},"properties":{"Name":"OOB-REHAB FOODMART INC","Nature_of_Business":"FOODMART","Address":"4001 SAN PEDRO DR NE","City":"ALBUQUERQUE","State":"Retail -Grocery","Billing_Status":"","Description":""}},{"type":"Feature","geometry":{"type":"Point","coordinates":[-106.603859,35.123653]},"properties":{"Name":"OOB-REIHANI FOOD MART","Nature_of_Business":"RETAILER","Address":"3609 COMANCHE RD NE","City":"ALBUQUERQUE","State":"Retail -Grocery","Billing_Status":"","Description":""}},{"type":"Feature","geometry":{"type":"Point","coordinates":[-106.56869,35.070218]},"properties":{"Name":"OOB-REIHANI FOOD MART #2","Nature_of_Business":"RETAILER","Address":"535 LOUISIANA BLVD SE","City":"ALBUQUERQUE","State":"Retail -Grocery","Billing_Status":"","Description":""}},{"type":"Feature","geometry":{"type":"Point","coordinates":[-106.620823,35.080763]},"properties":{"Name":"OOB-SABRANG AUDIO & VIDEO GROCERY","Nature_of_Business":"GROCERY STOE","Address":"107 HARVARD DR SE","City":"ALBUQUERQUE","State":"Retail -Grocery","Billing_Status":"","Description":""}},{"type":"Feature","geometry":{"type":"Point","coordinates":[-106.56869,35.070218]},"properties":{"Name":"OOB-SAIS FOOD MART","Nature_of_Business":"GROCERY STORE","Address":"535 LOUISIANA SE","City":"ALBUQUERQUE","State":"Retail -Grocery","Billing_Status":"","Description":""}},{"type":"Feature","geometry":{"type":"Point","coordinates":[-106.56869,35.070218]},"properties":{"Name":"OOB-SAIS ONE FOOD MART","Nature_of_Business":"RETAIL FOOD","Address":"535 LOUISIANA ST SE","City":"ALBUQUERQUE","State":"Retail -Grocery","Billing_Status":"","Description":""}},{"type":"Feature","geometry":{"type":"Point","coordinates":[-106.550468,35.067321]},"properties":{"Name":"OOB-SANDIA CHEVRON #2","Nature_of_Business":"GROCERY","Address":"600 WYOMING BLVD SE","City":"ALBUQUERQUE","State":"Retail -Grocery","Billing_Status":"","Description":""}},{"type":"Feature","geometry":{"type":"Point","coordinates":[-106.54189,35.102552]},"properties":{"Name":"OOB-SARA LEE BAKERY STORE # 2","Nature_of_Business":"DISCOUNT BAKERY","Address":"1815 MOON ST NE","City":"ALBUQUERQUE","State":"Retail -Grocery","Billing_Status":"","Description":""}},{"type":"Feature","geometry":{"type":"Point","coordinates":[-106.496611,35.073847]},"properties":{"Name":"OOB-SARA LEE BAKERY STORE #5","Nature_of_Business":"DISCOUNT BAKERY","Address":"417 TRAMWAY BLVD NE","City":"ALBUQUERQUE","State":"Retail -Grocery","Billing_Status":"","Description":""}},{"type":"Feature","geometry":{"type":"Point","coordinates":[-106.588217,35.087412]},"properties":{"Name":"OOB-SAV-ON DRUGS #9265","Nature_of_Business":"RETAILER","Address":"5112 LOMAS BLVD NE","City":"ALBUQUERQUE","State":"Retail -Grocery","Billing_Status":"","Description":""}},{"type":"Feature","geometry":{"type":"Point","coordinates":[-106.678956,35.199679]},"properties":{"Name":"OOB-SAV-ON DRUGS #9310","Nature_of_Business":"RETAILER","Address":"4665 IRVING BLVD NW","City":"ALBUQUERQUE","State":"Retail -Grocery","Billing_Status":"","Description":""}},{"type":"Feature","geometry":{"type":"Point","coordinates":[-106.60432,35.095475]},"properties":{"Name":"OOB-SAVE A BUNCH GROCERY STORE","Nature_of_Business":"GROCERY","Address":"1427 CARLISLE BLVD NE","City":"ALBUQUERQUE","State":"Retail -Grocery","Billing_Status":"","Description":""}},{"type":"Feature","geometry":{"type":"Point","coordinates":[-106.686238,35.085487]},"properties":{"Name":"OOB-SAVE A LOT FOODS 1426","Nature_of_Business":"RETAIL GROCERY STORE","Address":"4201 CENTRAL AV NW SP D","City":"ALBUQUERQUE","State":"Retail -Grocery","Billing_Status":"","Description":""}},{"type":"Feature","geometry":{"type":"Point","coordinates":[-106.605813,35.079775]},"properties":{"Name":"OOB-SENOR MURPHY CANDYMAKER","Nature_of_Business":"RETAIL CANDY SALES","Address":"105 AMHERST RD SE","City":"ALBUQUERQUE","State":"Retail -Grocery","Billing_Status":"","Description":""}},{"type":"Feature","geometry":{"type":"Point","coordinates":[-106.515805,35.116079]},"properties":{"Name":"OOB-SERNA OIL","Nature_of_Business":"GAS STATION","Address":"2925 JUAN TABO NE","City":"ALBUQUERQUE","State":"Retail -Grocery","Billing_Status":"","Description":""}},{"type":"Feature","geometry":{"type":"Point","coordinates":[-106.577482,35.107278]},"properties":{"Name":"OOB-SWEET FACTORY  INC","Nature_of_Business":"GROCERY","Address":"108 CORONADO CENTER NE","City":"ALBUQUERQUE","State":"Retail -Grocery","Billing_Status":"","Description":""}},{"type":"Feature","geometry":{"type":"Point","coordinates":[-106.650149,35.085705]},"properties":{"Name":"OOB-TASTEBUDS","Nature_of_Business":"CONVENIENCE STORE","Address":"200 3RD ST NW","City":"ALBUQUERQUE","State":"Retail -Grocery","Billing_Status":"","Description":""}},{"type":"Feature","geometry":{"type":"Point","coordinates":[-106.569222,35.058288]},"properties":{"Name":"OOB-TEXACO","Nature_of_Business":"GAS STATION","Address":"6517 GIBSON BLVD NE","City":"ALBUQUERQUE","State":"Retail -Grocery","Billing_Status":"","Description":""}},{"type":"Feature","geometry":{"type":"Point","coordinates":[-106.569222,35.058288]},"properties":{"Name":"OOB-TEXACO","Nature_of_Business":"GAS STATION / C STORE","Address":"6517 GIBSON ST SE","City":"ALBUQUERQUE","State":"Retail -Grocery","Billing_Status":"","Description":""}},{"type":"Feature","geometry":{"type":"Point","coordinates":[-106.675105,35.095568]},"properties":{"Name":"OOB-TEXACO METRO ONE","Nature_of_Business":"GAS STATION","Address":"2309 CENTRAL AV NW","City":"ALBUQUERQUE","State":"Retail -Grocery","Billing_Status":"","Description":""}},{"type":"Feature","geometry":{"type":"Point","coordinates":[-106.515198,35.093951]},"properties":{"Name":"OOB-TEXACO MINI MART","Nature_of_Business":"TEXACO GAS STATION","Address":"1300 JUAN TABO BLVD NE","City":"ALBUQUERQUE","State":"Retail -Grocery","Billing_Status":"","Description":""}},{"type":"Feature","geometry":{"type":"Point","coordinates":[-106.563253,35.075097]},"properties":{"Name":"OOB-THE GROCERY CART","Nature_of_Business":"GROCERY CART","Address":"107 SAN PABLO ST SE","City":"ALBUQUERQUE","State":"Retail -Grocery","Billing_Status":"","Description":""}},{"type":"Feature","geometry":{"type":"Point","coordinates":[-106.670395,35.09695]},"properties":{"Name":"OOB-THE NEW MEXICO TABLE","Nature_of_Business":"RETAIL SALES","Address":"323 ROMERO ST NW NO 7","City":"ALBUQUERQUE","State":"Retail -Grocery","Billing_Status":"","Description":""}},{"type":"Feature","geometry":{"type":"Point","coordinates":[-106.652854,35.084549]},"properties":{"Name":"OOB-TONS","Nature_of_Business":" ","Address":"111 5TH ST SW","City":"ALBUQUERQUE","State":"Retail -Grocery","Billing_Status":"","Description":""}},{"type":"Feature","geometry":{"type":"Point","coordinates":[-106.497528,35.065864]},"properties":{"Name":"OOB-TRAMWAY SHELL","Nature_of_Business":"GROCERY","Address":"13400 WENONAH AV SE","City":"ALBUQUERQUE","State":"Retail -Grocery","Billing_Status":"","Description":""}},{"type":"Feature","geometry":{"type":"Point","coordinates":[-106.532475,35.076071]},"properties":{"Name":"OOB-TWEETY'S U-PUMP-IT","Nature_of_Business":"RETAIL","Address":"241 EUBANK BLVD NE","City":"ALBUQUERQUE","State":"Retail -Grocery","Billing_Status":"","Description":""}},{"type":"Feature","geometry":{"type":"Point","coordinates":[-106.65877,35.107794]},"properties":{"Name":"OOB-WALGREENS 00018","Nature_of_Business":"WALGREEN'S CO.","Address":"2031 12TH ST NW","City":"ALBUQUERQUE","State":"Retail -Grocery","Billing_Status":"","Description":""}},{"type":"Feature","geometry":{"type":"Point","coordinates":[-106.515635,35.070084]},"properties":{"Name":"OOB-WALGREENS 01316","Nature_of_Business":"WALGREEN'S CO.","Address":"11816 CENTRAL AV SE","City":"ALBUQUERQUE","State":"Retail -Grocery","Billing_Status":"","Description":""}},{"type":"Feature","geometry":{"type":"Point","coordinates":[-106.640998,35.138697]},"properties":{"Name":"OOB-WALGREENS 01591","Nature_of_Business":"WALGREEN'S CO.","Address":"333 MONTANO RD NW","City":"ALBUQUERQUE","State":"Retail -Grocery","Billing_Status":"","Description":""}},{"type":"Feature","geometry":{"type":"Point","coordinates":[-106.706141,35.103003]},"properties":{"Name":"OOB-WEST MESA CHEVRON #51","Nature_of_Business":"GROCERY","Address":"1535 COORS BLVD NW","City":"ALBUQUERQUE","State":"Retail -Grocery","Billing_Status":"","Description":""}},{"type":"Feature","geometry":{"type":"Point","coordinates":[-106.586308,35.14838]},"properties":{"Name":"OOB-WILD OATS MARKET","Nature_of_Business":"GROCERY/RESTAURANT","Address":"6300 SAN MATEO BLVD NE","City":"ALBUQUERQUE","State":"Retail -Grocery","Billing_Status":"","Description":""}},{"type":"Feature","geometry":{"type":"Point","coordinates":[-106.655048,35.193036]},"properties":{"Name":"OOB-WILLIAMS SONOMA","Nature_of_Business":"GROCERY","Address":"10000 COORS BYPASS NW","City":"ALBUQUERQUE","State":"Retail -Grocery","Billing_Status":"","Description":""}},{"type":"Feature","geometry":{"type":"Point","coordinates":[-106.574097,35.149024]},"properties":{"Name":"OOB-WINNERS","Nature_of_Business":"CONVENIENCE STORE/GAS","Address":"1400 MONTANO BLVD NE","City":"ALBUQUERQUE","State":"Retail -Grocery","Billing_Status":"","Description":""}},{"type":"Feature","geometry":{"type":"Point","coordinates":[-106.702751,35.115398]},"properties":{"Name":"OOB-WINNERS CHEVRON #152","Nature_of_Business":"GROCERY","Address":"5311 QUAIL RD NW","City":"ALBUQUERQUE","State":"Retail -Grocery","Billing_Status":"","Description":""}},{"type":"Feature","geometry":{"type":"Point","coordinates":[-106.550729,35.074048]},"properties":{"Name":"OOB-WINNERS CHEVRON #162","Nature_of_Business":"GROCERY","Address":"8601 CENTRAL AV NE","City":"ALBUQUERQUE","State":"Retail -Grocery","Billing_Status":"","Description":""}},{"type":"Feature","geometry":{"type":"Point","coordinates":[-106.593347,35.155974]},"properties":{"Name":"OOB-WINNERS CHEVRON #63","Nature_of_Business":"GROCERY","Address":"4300 OSUNA RD NE","City":"ALBUQUERQUE","State":"Retail -Grocery","Billing_Status":"","Description":""}},{"type":"Feature","geometry":{"type":"Point","coordinates":[-106.586785,35.077743]},"properties":{"Name":"OOB-WINNERS SHELL #156","Nature_of_Business":"GROCERY","Address":"5210 CENTRAL AV SE","City":"ALBUQUERQUE","State":"Retail -Grocery","Billing_Status":"","Description":""}},{"type":"Feature","geometry":{"type":"Point","coordinates":[-106.557414,35.158747]},"properties":{"Name":"OOB-WINNERS TEXACO","Nature_of_Business":"GROCERY","Address":"8101 HARPER RD NE","City":"ALBUQUERQUE","State":"Retail -Grocery","Billing_Status":"","Description":""}},{"type":"Feature","geometry":{"type":"Point","coordinates":[-106.592522,35.174618]},"properties":{"Name":"OOB-WINNERS TEXACO","Nature_of_Business":"GROCERY","Address":"4701 PASEO DEL NORTE NE","City":"ALBUQUERQUE","State":"Retail -Grocery","Billing_Status":"","Description":""}},{"type":"Feature","geometry":{"type":"Point","coordinates":[-106.615532,35.109309]},"properties":{"Name":"OOB-WONDER HOSTESS BAKERY THRIFT","Nature_of_Business":"GROCERY","Address":"2445 MENAUL BLVD NE","City":"ALBUQUERQUE","State":"Retail -Grocery","Billing_Status":"","Description":""}},{"type":"Feature","geometry":{"type":"Point","coordinates":[-106.699962,35.112458]},"properties":{"Name":"OOB-YOUR DOLLAR STORE","Nature_of_Business":"RETAIL","Address":"5201 OURAY NW","City":"ALBUQUERQUE","State":"Retail -Grocery","Billing_Status":"","Description":""}},{"type":"Feature","geometry":{"type":"Point","coordinates":[-106.577513,35.076927]},"properties":{"Name":"OOB-ZENITH FASHIONS","Nature_of_Business":"RETAIL AFRICAN ITEMS","Address":"4514 CENTRAL BLVD NE","City":"ALBUQUERQUE","State":"Retail -Grocery","Billing_Status":"","Description":""}},{"type":"Feature","geometry":{"type":"Point","coordinates":[-106.569361,35.072643]},"properties":{"Name":"OOB=-DEES DENTED CAN","Nature_of_Business":"GROCERY OUTLET","Address":"7000 ZUNI ST SE STE D","City":"ALBUQUERQUE","State":"Retail -Grocery","Billing_Status":"","Description":""}},{"type":"Feature","geometry":{"type":"Point","coordinates":[-106.55045,35.082004]},"properties":{"Name":"OOB01/2004FOUNTAIN OF HEALTH","Nature_of_Business":"GROCERY","Address":"521 WYOMING BLVD NE","City":"ALBUQUERQUE","State":"Retail -Grocery","Billing_Status":"","Description":""}},{"type":"Feature","geometry":{"type":"Point","coordinates":[-106.582915,35.058437]},"properties":{"Name":"OOB01/26/15 99 BANH SUPERMARKET","Nature_of_Business":"GROCERY STORE","Address":"5315 GIBSON BLVD SE","City":"ALBUQUERQUE","State":"Retail -Grocery","Billing_Status":"","Description":""}},{"type":"Feature","geometry":{"type":"Point","coordinates":[-106.697443,35.161967]},"properties":{"Name":"OOB02/08/06ALLSUPS #150","Nature_of_Business":"GROCERY","Address":"5115 HOMESTEAD CIR NW","City":"ALBUQUERQUE","State":"Retail -Grocery","Billing_Status":"","Description":""}},{"type":"Feature","geometry":{"type":"Point","coordinates":[-106.650966,35.089163]},"properties":{"Name":"OOB02/18/04DUKE CITY SNACKS","Nature_of_Business":"VENDING/RETAIL","Address":"400 ROMA NW","City":"ALBUQUERQUE","State":"Retail -Grocery","Billing_Status":"","Description":""}},{"type":"Feature","geometry":{"type":"Point","coordinates":[-106.640043,35.100363]},"properties":{"Name":"OOB02/2004GIL'S THRIFT STORE","Nature_of_Business":"GROCERY","Address":"406 ASPEN AV NE","City":"ALBUQUERQUE","State":"Retail -Grocery","Billing_Status":"","Description":""}},{"type":"Feature","geometry":{"type":"Point","coordinates":[-106.533204,35.124011]},"properties":{"Name":"OOB02/2004WONDER HOSTESS OUTLET","Nature_of_Business":"GROCERY","Address":"3728 EUBANK BLVD NE","City":"ALBUQUERQUE","State":"Retail -Grocery","Billing_Status":"","Description":""}},{"type":"Feature","geometry":{"type":"Point","coordinates":[-106.589811,35.087425]},"properties":{"Name":"OOB03/29/06JOHN BROOKS FOOD TOWN","Nature_of_Business":"GROCERY","Address":"4910 LOMAS BLVD NE","City":"ALBUQUERQUE","State":"Retail -Grocery","Billing_Status":"","Description":""}},{"type":"Feature","geometry":{"type":"Point","coordinates":[-106.589412,35.157401]},"properties":{"Name":"OOB04/2004HOWARD JOHNSON","Nature_of_Business":"GROCERY/POOL","Address":"7630 PAN AMERICAN NE","City":"ALBUQUERQUE","State":"Retail -Grocery","Billing_Status":"","Description":""}},{"type":"Feature","geometry":{"type":"Point","coordinates":[-106.552401,35.109107]},"properties":{"Name":"OOB06/2003GIFT BASKET & DANCING MO","Nature_of_Business":"RETAIL","Address":"8254 MENAUL BLVD NE","City":"ALBUQUERQUE","State":"Retail -Grocery","Billing_Status":"","Description":""}},{"type":"Feature","geometry":{"type":"Point","coordinates":[-106.694952,35.152638]},"properties":{"Name":"OOB06/2003GREAT HARVEST BREAD CO #2","Nature_of_Business":"BAKERY","Address":"4801 MONTANO DR NW","City":"ALBUQUERQUE","State":"Retail -Grocery","Billing_Status":"","Description":""}},{"type":"Feature","geometry":{"type":"Point","coordinates":[-106.555191,35.072808]},"properties":{"Name":"OOB07/18/04CIRCLE K 597","Nature_of_Business":"GROCERY","Address":"8205 ZUNI RD SE","City":"ALBUQUERQUE","State":"Retail -Grocery","Billing_Status":"","Description":""}},{"type":"Feature","geometry":{"type":"Point","coordinates":[-106.506154,35.116253]},"properties":{"Name":"OOB08/17/03JOHN BROOKS","Nature_of_Business":"GROCERY","Address":"12000 CANDELARIA RD NE","City":"ALBUQUERQUE","State":"Retail -Grocery","Billing_Status":"","Description":""}},{"type":"Feature","geometry":{"type":"Point","coordinates":[-106.576331,35.108993]},"properties":{"Name":"OOB08/2003HICKORY FARMS","Nature_of_Business":"RETAIL SPECIALTY FOODS","Address":"6000 MENAUL BLVD NE","City":"ALBUQUERQUE","State":"Retail -Grocery","Billing_Status":"","Description":""}},{"type":"Feature","geometry":{"type":"Point","coordinates":[-106.500014,35.068413]},"properties":{"Name":"OOBHALEY'S HALLMARK FLOWERS & GIFTS","Nature_of_Business":"GREETING CARDS","Address":"13140 CENTRAL AV SE STE I","City":"ALBUQUERQUE","State":"Retail -Grocery","Billing_Status":"","Description":""}},{"type":"Feature","geometry":{"type":"Point","coordinates":[-106.515465,35.09497]},"properties":{"Name":"OOBMAI ORIENTAL MINI MARKET","Nature_of_Business":" ","Address":"1331 JUAN TABO BLVD NE STE 2HJK","City":"ALBUQUERQUE","State":"Retail -Grocery","Billing_Status":"","Description":""}},{"type":"Feature","geometry":{"type":"Point","coordinates":[-106.586346,35.082351]},"properties":{"Name":"OOBMARCO POLO MARKET INC","Nature_of_Business":"GROCERY","Address":"607 SAN MATEO BLVD NE","City":"ALBUQUERQUE","State":"Retail -Grocery","Billing_Status":"","Description":""}},{"type":"Feature","geometry":{"type":"Point","coordinates":[-106.515525,35.09807]},"properties":{"Name":"OOBMOONS COFFEE & TEA L.L.C","Nature_of_Business":"RETAIL","Address":"1605 JUAN TABO BLVD NE","City":"ALBUQUERQUE","State":"Retail -Grocery","Billing_Status":"","Description":""}},{"type":"Feature","geometry":{"type":"Point","coordinates":[-106.496611,35.073847]},"properties":{"Name":"OOBSWEET BLESSINGS BAKERY /CATERING","Nature_of_Business":"BAKERY AND CATERING","Address":"417 TRAMWAY BLVD NE STE 112","City":"ALBUQUERQUE","State":"Retail -Grocery","Billing_Status":"","Description":""}},{"type":"Feature","geometry":{"type":"Point","coordinates":[-106.710855,35.085981]},"properties":{"Name":"PER EHSII CECELIA M GARCIA FA OOB 01/31/14 CORNER STORE 1212","Nature_of_Business":"GROCERY","Address":"361 COORS BLVD NW","City":"ALBUQUERQUE","State":"Retail -Grocery","Billing_Status":"","Description":""}},{"type":"Feature","geometry":{"type":"Point","coordinates":[-106.702052,35.114702]},"properties":{"Name":"PER EHSII CECELIA M GARCIA FA OOB 01/31/14 CORNER STORE 1219","Nature_of_Business":"GROCERY","Address":"2721 COORS BLVD NW","City":"ALBUQUERQUE","State":"Retail -Grocery","Billing_Status":"","Description":""}},{"type":"Feature","geometry":{"type":"Point","coordinates":[-106.655613,35.070122]},"properties":{"Name":"PER EHSII CECELIA M GARCIA FA OOB 01/31/14 CORNER STORE 1226","Nature_of_Business":"GROCERY","Address":"511 BRIDGE BLVD SW","City":"ALBUQUERQUE","State":"Retail -Grocery","Billing_Status":"","Description":""}},{"type":"Feature","geometry":{"type":"Point","coordinates":[-106.710073,35.066034]},"properties":{"Name":"PER EHSII CECELIA M GARCIA FA OOB 01/31/14 VALERO CORNER STORE 1213","Nature_of_Business":"GROCERY","Address":"1100 OLD COORS BLVD SW","City":"ALBUQUERQUE","State":"Retail -Grocery","Billing_Status":"","Description":""}},{"type":"Feature","geometry":{"type":"Point","coordinates":[-106.590237,35.130844]},"properties":{"Name":"PER EHSII JAY COUSINS FA OOB 4/11/14 JENNY CRAIG WIGHT LOSS CTR","Nature_of_Business":"GROCERY","Address":"4770 MONTGOMERY BLVD NE","City":"ALBUQUERQUE","State":"Retail -Grocery","Billing_Status":"","Description":""}},{"type":"Feature","geometry":{"type":"Point","coordinates":[-106.598372,35.157144]},"properties":{"Name":"PER EHSII MICHAEL PITTMAN FA OOB 10/1/14 SKATE PARK PLEX","Nature_of_Business":"RETAIL","Address":"6816 WASHINGTON ST NE","City":"ALBUQUERQUE","State":"Retail -Grocery","Billing_Status":"","Description":""}},{"type":"Feature","geometry":{"type":"Point","coordinates":[-106.594289,35.156408]},"properties":{"Name":"PER EHSII MICHAEL PTIIMAN FA OOB 3/7/14 CORNER STORE 1242","Nature_of_Business":"GROCERY","Address":"4221 OSUNA RD NE","City":"ALBUQUERQUE","State":"Retail -Grocery","Billing_Status":"","Description":""}},{"type":"Feature","geometry":{"type":"Point","coordinates":[-106.617471,35.080913]},"properties":{"Name":"PER EHSII RANDY MARTINEZ FA OOB 3/1/14  VALERO","Nature_of_Business":"GROCERY","Address":"2550 CENTRAL AV SE","City":"ALBUQUERQUE","State":"Retail -Grocery","Billing_Status":"","Description":""}},{"type":"Feature","geometry":{"type":"Point","coordinates":[-106.604295,35.059071]},"properties":{"Name":"PER EHSII RANDY MARTINEZ FA OOB 9/1/14 KIRTLAND FOOD PLAZA","Nature_of_Business":"GROCERY","Address":"1620 CARLISLE BLVD SE","City":"ALBUQUERQUE","State":"Retail -Grocery","Billing_Status":"","Description":""}},{"type":"Feature","geometry":{"type":"Point","coordinates":[-106.62696,35.097606]},"properties":{"Name":"PER EHSII ROSANNA TRUJILLO FA OOB 02/20/14 VALERO","Nature_of_Business":"GROCERY","Address":"1425 UNIVERSITY BLVD NE","City":"ALBUQUERQUE","State":"Retail -Grocery","Billing_Status":"","Description":""}},{"type":"Feature","geometry":{"type":"Point","coordinates":[-106.645655,35.20533]},"properties":{"Name":"PER EHSII SHANNON BLUEEYES FA OOB 02/18/14 CORNER STORE 1241","Nature_of_Business":"GROCERY","Address":"10731 CORRALES RD NW","City":"ALBUQUERQUE","State":"Retail -Grocery","Billing_Status":"","Description":""}},{"type":"Feature","geometry":{"type":"Point","coordinates":[-106.729408,35.104113]},"properties":{"Name":"PER EHSII SHANNON BLUEEYES FA OOB 02/18/14 CORNER STORE 1246","Nature_of_Business":"GROCERY","Address":"7940 LADERA DR NW","City":"ALBUQUERQUE","State":"Retail -Grocery","Billing_Status":"","Description":""}},{"type":"Feature","geometry":{"type":"Point","coordinates":[-106.533198,35.123522]},"properties":{"Name":"PER EHSII TAMI HASTINGS FA OOB 4/23/13 CORNER STORE 1244","Nature_of_Business":"GROCERY","Address":"3700 EUBANK BLVD NE","City":"ALBUQUERQUE","State":"Retail -Grocery","Billing_Status":"","Description":""}},{"type":"Feature","geometry":{"type":"Point","coordinates":[-106.546904,35.073505]},"properties":{"Name":"PER EHSII TAMI HASTINGS FA OOB 5/31/14 DIAMOND BAKERY CORPORATION","Nature_of_Business":" ","Address":"9012 CENTRAL AV NE STE C","City":"ALBUQUERQUE","State":"Retail -Grocery","Billing_Status":"","Description":""}},{"type":"Feature","geometry":{"type":"Point","coordinates":[-106.680045,35.156304]},"properties":{"Name":"PER SHANNON BLUEEYES FA OOB 4/10/14 JENNY CRAIG WIGHT LOSS CTR","Nature_of_Business":"GROCERY","Address":"6300 RIVERSIDE PLAZA LN NW STE 200","City":"ALBUQUERQUE","State":"Retail -Grocery","Billing_Status":"","Description":""}},{"type":"Feature","geometry":{"type":"Point","coordinates":[-106.701292,35.112468]},"properties":{"Name":"PURIFIED WATER TO GO 1505 LLC","Nature_of_Business":"RETAIL WATER","Address":"5241 OURAY NW","City":"ALBUQUERQUE","State":"Retail -Grocery","Billing_Status":"","Description":""}},{"type":"Feature","geometry":{"type":"Point","coordinates":[-106.6129153,35.13755052]},"properties":{"Name":"SAMS CLUB 4938","Nature_of_Business":"RETAIL SALES","Address":"1421 N RENAISSANCE BLVD NE ","City":"ALBUQUERQUE","State":"Retail -Grocery","Billing_Status":"","Description":""}},{"type":"Feature","geometry":{"type":"Point","coordinates":[-106.5294518,35.07717905]},"properties":{"Name":"SAMS CLUB 6672","Nature_of_Business":"RESTAURANT","Address":"300 EUBANK BLVD NE ","City":"ALBUQUERQUE","State":"Retail -Grocery","Billing_Status":"","Description":""}},{"type":"Feature","geometry":{"type":"Point","coordinates":[-106.6396259,35.1099927]},"properties":{"Name":"SARA LEE BAKERY STORE 2","Nature_of_Business":"DISCOUNT BAKERY","Address":"11601 MENAUL BLVD NE ","City":"ALBUQUERQUE","State":"Retail -Grocery","Billing_Status":"","Description":""}},{"type":"Feature","geometry":{"type":"Point","coordinates":[-106.5464391,35.12087498]},"properties":{"Name":"SILVER SUN CAKE DESIGNS","Nature_of_Business":"BAKERY/RETAIL","Address":"8711 LA SALA DEL SUR NE","City":"ALBUQUERQUE","State":"Retail -Grocery","Billing_Status":"","Description":""}},{"type":"Feature","geometry":{"type":"Point","coordinates":[-106.63981,35.14588953]},"properties":{"Name":"SMITHS 423","Nature_of_Business":"BKRY/GROC/REST","Address":"6125 4TH ST NW ","City":"ALBUQUERQUE","State":"Retail -Grocery","Billing_Status":"","Description":""}},{"type":"Feature","geometry":{"type":"Point","coordinates":[-106.4972619,35.1583465]},"properties":{"Name":"SMITHS 439","Nature_of_Business":"BKRY/GROC/REST","Address":"4700 TRAMWAY BLVD NE ","City":"ALBUQUERQUE","State":"Retail -Grocery","Billing_Status":"","Description":""}},{"type":"Feature","geometry":{"type":"Point","coordinates":[-106.5417715,35.0876658]},"properties":{"Name":"SMITHS 446","Nature_of_Business":"BKRY/GROC/REST","Address":"6001 LOMAS BLVD NE ","City":"ALBUQUERQUE","State":"Retail -Grocery","Billing_Status":"","Description":""}},{"type":"Feature","geometry":{"type":"Point","coordinates":[-106.6761916,35.20607234]},"properties":{"Name":"SMITHS 463","Nature_of_Business":"BKRY/GROC/REST","Address":"4800 MCMAHON BLVD NW ","City":"ALBUQUERQUE","State":"Retail -Grocery","Billing_Status":"","Description":""}},{"type":"Feature","geometry":{"type":"Point","coordinates":[-106.6033391,35.09492292]},"properties":{"Name":"SMITHS 496","Nature_of_Business":"BKRY/GROC/REST","Address":"3701 CONSTITUTION AV NE ","City":"ALBUQUERQUE","State":"Retail -Grocery","Billing_Status":"","Description":""}},{"type":"Feature","geometry":{"type":"Point","coordinates":[-106.710917,35.083247]},"properties":{"Name":"SMITHS 498","Nature_of_Business":"BKRY/GROC/REST","Address":"111 COORS BLVD NW ","City":"ALBUQUERQUE","State":"Retail -Grocery","Billing_Status":"","Description":""}},{"type":"Feature","geometry":{"type":"Point","coordinates":[-106.6217179,35.0760752]},"properties":{"Name":"SMITHS FOOD AND DRUG CENTERS INC","Nature_of_Business":"BKRY/GROC/REST","Address":"320 YALE BLVD SE ","City":"ALBUQUERQUE","State":"Retail -Grocery","Billing_Status":"","Description":""}},{"type":"Feature","geometry":{"type":"Point","coordinates":[-106.4967609,35.06927187]},"properties":{"Name":"SMITHS FOOD AND DRUG CENTERS INC","Nature_of_Business":"BKRY/GROC/REST","Address":"200 TRAMWAY BLVD SE ","City":"ALBUQUERQUE","State":"Retail -Grocery","Billing_Status":"","Description":""}},{"type":"Feature","geometry":{"type":"Point","coordinates":[-106.5531932,35.14630672]},"properties":{"Name":"SMITHS FOOD AND DRUG CENTERS INC","Nature_of_Business":"BKRY/GROC/REST","Address":"8040 ACADEMY RD NE ","City":"ALBUQUERQUE","State":"Retail -Grocery","Billing_Status":"","Description":""}},{"type":"Feature","geometry":{"type":"Point","coordinates":[-106.5592914,35.1767296]},"properties":{"Name":"SMITHS FOOD AND DRUG CENTERS INC","Nature_of_Business":"BKRY/GROC/REST","Address":"8100 WYOMING BLVD NE ","City":"ALBUQUERQUE","State":"Retail -Grocery","Billing_Status":"","Description":""}},{"type":"Feature","geometry":{"type":"Point","coordinates":[-106.687847,35.17982793]},"properties":{"Name":"SMITHS FOOD AND DRUG CENTERS INC","Nature_of_Business":"BKRY/GROC/REST","Address":"8301 GOLF COURSE RD NW","City":"ALBUQUERQUE","State":"Retail -Grocery","Billing_Status":"","Description":""}},{"type":"Feature","geometry":{"type":"Point","coordinates":[-106.5307605,35.1438655]},"properties":{"Name":"SMITHS FOOD AND DRUG CENTERS INC","Nature_of_Business":"BKRY/GROC/REST","Address":"5850 EUBANK BLVD NE ","City":"ALBUQUERQUE","State":"Retail -Grocery","Billing_Status":"","Description":""}},{"type":"Feature","geometry":{"type":"Point","coordinates":[-106.5686858,35.0917224]},"properties":{"Name":"SMITHS FOOD AND DRUG CENTERS INC","Nature_of_Business":"BKRY/GROC/REST","Address":"4016 LOUISIANA BLVD NE ","City":"ALBUQUERQUE","State":"Retail -Grocery","Billing_Status":"","Description":""}},{"type":"Feature","geometry":{"type":"Point","coordinates":[-106.643198,35.207169]},"properties":{"Name":"SPROUTS FARMERS MARKET","Nature_of_Business":"","Address":"10701 CORRALES RD NW","City":"ALBUQUERQUE","State":"Retail -Grocery","Billing_Status":"","Description":""}},{"type":"Feature","geometry":{"type":"Point","coordinates":[-106.5877568,35.0867639]},"properties":{"Name":"SPROUTS FARMERS MARKET","Nature_of_Business":"","Address":"5112 LOMAS BLVD NE","City":"ALBUQUERQUE","State":"Retail -Grocery","Billing_Status":"","Description":""}},{"type":"Feature","geometry":{"type":"Point","coordinates":[-106.5863785,35.1250575]},"properties":{"Name":"SPROUTS FARMERS MARKET","Nature_of_Business":"","Address":"6300A SAN MATEO BLVD NE","City":"ALBUQUERQUE","State":"Retail -Grocery","Billing_Status":"","Description":""}},{"type":"Feature","geometry":{"type":"Point","coordinates":[-106.6454881,35.0704089]},"properties":{"Name":"STADIUM SUPER MARKET","Nature_of_Business":"","Address":"1312 BROADWAY BLVD SE","City":"ALBUQUERQUE","State":"Retail -Grocery","Billing_Status":"","Description":""}},{"type":"Feature","geometry":{"type":"Point","coordinates":[-106.5687239,35.0672239]},"properties":{"Name":"TALIN MARKET WORLD FOOD FARE","Nature_of_Business":"SUPERMARKET","Address":"88 LOUISIANA BLVD SE ","City":"ALBUQUERQUE","State":"Retail -Grocery","Billing_Status":"","Description":""}},{"type":"Feature","geometry":{"type":"Point","coordinates":[-106.5686858,35.0917224]},"properties":{"Name":"TARGET","Nature_of_Business":"","Address":"2120 LOUISIANA BLVD NE","City":"ALBUQUERQUE","State":"Retail -Grocery","Billing_Status":"","Description":""}},{"type":"Feature","geometry":{"type":"Point","coordinates":[-106.5474338,35.13060796]},"properties":{"Name":"TARGET STORE 356","Nature_of_Business":"RESTAURANT","Address":"8710 MONTGOMERY BLVD NE ","City":"ALBUQUERQUE","State":"Retail -Grocery","Billing_Status":"","Description":""}},{"type":"Feature","geometry":{"type":"Point","coordinates":[-106.5272364,35.08583395]},"properties":{"Name":"TARGET STORE 357","Nature_of_Business":"RESTAURANT","Address":"11120 LOMAS BLVD NE ","City":"ALBUQUERQUE","State":"Retail -Grocery","Billing_Status":"","Description":""}},{"type":"Feature","geometry":{"type":"Point","coordinates":[-106.6671534,35.18182585]},"properties":{"Name":"TARGET STORE 625","Nature_of_Business":"RESTAURANT","Address":"9371 COORS BLVD NW","City":"ALBUQUERQUE","State":"Retail -Grocery","Billing_Status":"","Description":""}},{"type":"Feature","geometry":{"type":"Point","coordinates":[-106.5770534,35.17425945]},"properties":{"Name":"TARGET STORE T-2031","Nature_of_Business":"RETAIL STORE","Address":"6100 PASEO DEL NORTE BLVD NE ","City":"ALBUQUERQUE","State":"Retail -Grocery","Billing_Status":"","Description":""}},{"type":"Feature","geometry":{"type":"Point","coordinates":[-106.604627,35.079591]},"properties":{"Name":"THE HERB STORE","Nature_of_Business":"HEALTH PRODUCTS","Address":"107 CARLISLE BLVD SE ","City":"ALBUQUERQUE","State":"Retail -Grocery","Billing_Status":"","Description":""}},{"type":"Feature","geometry":{"type":"Point","coordinates":[-106.550968,35.175631]},"properties":{"Name":"TRADER JOES 166","Nature_of_Business":"RETAIL GROCERY STORE","Address":"8928 HOLLY AV NE ","City":"ALBUQUERQUE","State":"Retail -Grocery","Billing_Status":"","Description":""}},{"type":"Feature","geometry":{"type":"Point","coordinates":[-106.623907,35.109291]},"properties":{"Name":"TRAVEL CENTERS OF AMERICA","Nature_of_Business":"","Address":"2501 UNIVERSITY BLVD NE ","City":"ALBUQUERQUE","State":"Retail -Grocery","Billing_Status":"","Description":""}},{"type":"Feature","geometry":{"type":"Point","coordinates":[-106.621989,35.07762425]},"properties":{"Name":"TRI-H CONVENIENCE STORE","Nature_of_Business":"RETAIL","Address":"225 YALE BLVD SE ","City":"ALBUQUERQUE","State":"Retail -Grocery","Billing_Status":"","Description":""}},{"type":"Feature","geometry":{"type":"Point","coordinates":[-106.5509518,35.1380605]},"properties":{"Name":"VITAMIN COTTAGE NATURAL FD MKT","Nature_of_Business":"RETAIL SALES","Address":"4420 WYOMING BLVD NE ","City":"ALBUQUERQUE","State":"Retail -Grocery","Billing_Status":"","Description":""}},{"type":"Feature","geometry":{"type":"Point","coordinates":[-106.553672,35.146107]},"properties":{"Name":"WAL MART 824","Nature_of_Business":"RESTAURANT","Address":"8000 ACADEMY RD NE ","City":"ALBUQUERQUE","State":"Retail -Grocery","Billing_Status":"","Description":""}},{"type":"Feature","geometry":{"type":"Point","coordinates":[-106.5951382,35.1054955]},"properties":{"Name":"WAL MART MARKET #2451","Nature_of_Business":"","Address":"4700 CUTLER AV NE","City":"ALBUQUERQUE","State":"Retail -Grocery","Billing_Status":"","Description":""}},{"type":"Feature","geometry":{"type":"Point","coordinates":[-106.6396259,35.1099927]},"properties":{"Name":"WAL MART MARKET 5675","Nature_of_Business":"","Address":"11001 MENAUL BLVD NE","City":"ALBUQUERQUE","State":"Retail -Grocery","Billing_Status":"","Description":""}},{"type":"Feature","geometry":{"type":"Point","coordinates":[-106.687847,35.17980259]},"properties":{"Name":"WAL MART NEIGHBORHOOD MRKT 3317","Nature_of_Business":"RETAIL","Address":"8511 GOLF COURSE RD NW ","City":"ALBUQUERQUE","State":"Retail -Grocery","Billing_Status":"","Description":""}},{"type":"Feature","geometry":{"type":"Point","coordinates":[-106.7393663,35.05461435]},"properties":{"Name":"WAL MART NEIGHBORHOOD MRKT 3385","Nature_of_Business":"RETAIL","Address":"9600 SAGE RD SW ","City":"ALBUQUERQUE","State":"Retail -Grocery","Billing_Status":"","Description":""}},{"type":"Feature","geometry":{"type":"Point","coordinates":[-106.586338,35.075582]},"properties":{"Name":"WAL MART SUPER CENTER 0831","Nature_of_Business":"SUPERMARKET","Address":"301 SAN MATEO BLVD SE ","City":"ALBUQUERQUE","State":"Retail -Grocery","Billing_Status":"","Description":""}},{"type":"Feature","geometry":{"type":"Point","coordinates":[-106.7007698,35.11021945]},"properties":{"Name":"WAL MART SUPER CENTER 2924","Nature_of_Business":"RETAIL","Address":"2550 COORS BLVD NW ","City":"ALBUQUERQUE","State":"Retail -Grocery","Billing_Status":"","Description":""}},{"type":"Feature","geometry":{"type":"Point","coordinates":[-106.5509518,35.1380605]},"properties":{"Name":"WAL MART SUPER CENTER 5491","Nature_of_Business":"SUPER CENTER","Address":"2266 WYOMING BLVD NE ","City":"ALBUQUERQUE","State":"Retail -Grocery","Billing_Status":"","Description":""}},{"type":"Feature","geometry":{"type":"Point","coordinates":[-106.5299164,35.0790827]},"properties":{"Name":"WAL MART SUPER CENTER 835","Nature_of_Business":"RESTAURANT","Address":"400 EUBANK BLVD NE ","City":"ALBUQUERQUE","State":"Retail -Grocery","Billing_Status":"","Description":""}},{"type":"Feature","geometry":{"type":"Point","coordinates":[-106.5299164,35.0790827]},"properties":{"Name":"WAL MART SUPER CENTER 835","Nature_of_Business":"RESTAURANT","Address":"400 EUBANK BLVD NE ","City":"ALBUQUERQUE","State":"Retail -Grocery","Billing_Status":"","Description":""}},{"type":"Feature","geometry":{"type":"Point","coordinates":[-106.7108788,35.02612585]},"properties":{"Name":"WAL MART SUPER CNTR 5430","Nature_of_Business":"RETAIL","Address":"3500 COORS BLVD SW ","City":"ALBUQUERQUE","State":"Retail -Grocery","Billing_Status":"","Description":""}},{"type":"Feature","geometry":{"type":"Point","coordinates":[-106.6043305,35.105702]},"properties":{"Name":"WAL MART SUPERCENTER 850","Nature_of_Business":"RESTAURANT","Address":"2701 CARLISLE BLVD NE ","City":"ALBUQUERQUE","State":"Retail -Grocery","Billing_Status":"","Description":""}},{"type":"Feature","geometry":{"type":"Point","coordinates":[-106.6043305,35.105702]},"properties":{"Name":"WAL MART SUPERCENTER 850","Nature_of_Business":"RESTAURANT","Address":"2701 CARLISLE BLVD NE ","City":"ALBUQUERQUE","State":"Retail -Grocery","Billing_Status":"","Description":""}},{"type":"Feature","geometry":{"type":"Point","coordinates":[-106.6050568,35.1026345]},"properties":{"Name":"WHOLE FOODS MARKET","Nature_of_Business":"GROCERY/RESTAURANT","Address":"2103 CARLISLE BLVD NE ","City":"ALBUQUERQUE","State":"Retail -Grocery","Billing_Status":"","Description":""}},{"type":"Feature","geometry":{"type":"Point","coordinates":[-106.5540904,35.14627576]},"properties":{"Name":"WHOLE FOODS MARKET","Nature_of_Business":"RETAIL GROCERY","Address":"5815 WYOMING BLVD NE ","City":"ALBUQUERQUE","State":"Retail -Grocery","Billing_Status":"","Description":""}},{"type":"Feature","geometry":{"type":"Point","coordinates":[-106.6570779,35.1942022]},"properties":{"Name":"SAMS CLUB 4703","Nature_of_Business":"RETAIL","Address":"10600 COORS BYPASS BLVD NW ","City":"ALBUQUERQUE","State":"Retail -Grocery","Billing_Status":"","Description":""}},{"type":"Feature","geometry":{"type":"Point","coordinates":[-106.5781051,35.1301098]},"properties":{"Name":"SAN PEDRO MIDDLE EAST GROCERY AND R","Nature_of_Business":"GROCERY AND RESTAURANT","Address":"4001 SAN PEDRO DR NE STE B","City":"ALBUQUERQUE","State":"Retail -Grocery","Billing_Status":"","Description":""}},{"type":"Feature","geometry":{"type":"Point","coordinates":[-106.6191959,35.1376344]},"properties":{"Name":"SHAMROCK FOODS WAREHOUSE","Nature_of_Business":"","Address":"1221 SOUTH RENAISSANCE BLVD NW","City":"ALBUQUERQUE","State":"Retail -Grocery","Billing_Status":"","Description":""}},{"type":"Feature","geometry":{"type":"Point","coordinates":[-106.5147376,35.1310143]},"properties":{"Name":"SPROUTS FARMERS MARKET","Nature_of_Business":"","Address":"11201 MONTGOMERY BLVD NE STE A","City":"ALBUQUERQUE","State":"Retail -Grocery","Billing_Status":"","Description":""}}]}